Name,Station Code,Lat,Lon
Kalisindh Dam,038-CDJAPR,24.482705555555555,76.22300555555556
Jawahar Sagar  DAM,046-CDJAPR,25.03666666666667,75.67833333333334
Singur Reservoir,018-UGDHYD,17.75,77.93
Panchana Dam,041-CDJAPR,26.554166666666667,77.005
Dharoi Dam,018MAHGAND,24.004722222222224,72.85416666666666
Bamni (Ballarsha),017-WGDNGP,19.814444444444444,79.37916666666666
LAXMI BARRAGE,049-ugdhyd,18.703888888888887,80.08916666666666
Yingkiong ,009NEID3,28.66178888888889,95.01284166666667
DHOLPUR,003-LYDAGRa,26.65861111111111,77.90361111111112
Kota City,044-CDJAPR,25.19611111111111,75.84444444444443
Ichari Dam,055-UYDDEL,30.613611111111112,77.7911111111111
Bhandara,006-WGDNGP,21.149166666666666,79.66861111111112
Matijuri,01-11-01-002,24.649444444444445,92.60888888888888
Tehri Dam,062-HGDDDN,30.37777777777778,78.47777777777777
Gudha Dam,039-CDJAPR,25.489444444444445,75.46722222222222
Abu Road,028-MAHGAND,24.49361111111111,72.79055555555556
Manderial,013-CDJAPR,26.279999999999998,77.28166666666667
Gazoldoba,021-LBDJPG,26.72972222222222,88.58222222222221
Sonamura,012-MDSIL,23.47222222222222,91.26277777777777
Kota Barrage,043-CDJAPR,25.17638888888889,75.82583333333334
Shetrunji dam,01 02 14 005,21.474444444444444,71.88
MALAKKARA,018-SWRDKOCHI,9.329166666666666,76.66388888888889
Amanat Barrage,43mgd5ptn,24.01,84.47
Nellore CWC,002-HYDCHENNAI,14.470277777777778,79.9888888888889
Tawa Reservoir,015-NDBHP,22.563333333333333,77.97611111111111
Darauli,012-MGD5PTN,26.074444444444445,84.12694444444443
Annapurna Ghat,01-11-01-007,24.83277777777778,92.79166666666667
Tenughat Reservoir,008-DDASL	,23.72472222222222,85.83999999999999
Kursela,025-mgd4ptn,25.42388888888889,87.23416666666667
Araria,029-mgd4ptn,26.124533333333332,87.49226666666667
NEELEESWARAM,012-SWRDKOCHI,10.18361111111111,76.49555555555555
Fatehgarh,003-mgd2lkn,27.40138888888889,79.62305555555555
Madurai,0052-SRDCBE,9.933333333333334,78.11666666666666
Subhash Bridge,020-MAHGAND,23.06138888888889,72.58555555555554
Annapurnaghat,010-MBDGHY,24.83277777777778,92.79166666666667
Numaligarh,024-UBDDIB,26.631180555555556,93.73041944444445
Melli,DWRIS-06,27.085277777777776,88.45166666666667
Kailashahar,023-MBDGHY,24.316111111111113,91.99305555555556
Taibpur,028-mgd4ptn,26.3925,88.1575
Kanpur,012-mgd2lkn,26.47222222222222,80.3786111111111
Ukai Reservoir,021-TDSURAT,21.25,73.58999999999999
Akhuapada,016-ERDBWN,20.916944444444447,86.27972222222222
Jainagar,020-mgd4ptn,26.586666666666666,86.14555555555556
Bareilly,009-mgd2lkn,28.299166666666668,79.36638888888888
VAPI,031-TDSURAT,20.37,72.88
Chinturu (Tallagudem/Kummuru),030-LGDHYD,17.74361111111111,81.38666666666667
Kahalgaon,007-MGD5PTN,25.25027777777778,87.22611111111111
Jamshedpur,008-ERDBWN,22.815555555555555,86.21611111111112
Tezpur,031-UBDDIB,26.615833333333335,92.79694444444445
Dharamtul,034-UBDDIB,26.168333333333333,92.3586111111111
Anandpur,015-ERDBWN,21.211111111111112,86.12055555555555
Ekmighat,014-mgd4ptn,26.119444444444444,85.87638888888888
Munger,005-MGD5PTN,25.37777777777778,86.46194444444444
Ayodhya ,011-MGD1LKN,26.811116666666667,82.20746666666668
Dalmau,013-mgd2lkn,26.060830555555555,81.02860833333334
Alipingal,037-MDBURLA,20.07,86.17
Purusottampur,029-ERDBWN,19.516666666666666,84.88333333333334
Goalpara,002-MBDGHY,26.197222222222223,90.6388888888889
Jenapur,023-ERDBWN,20.878888888888888,86.01444444444445
Sikandarpur (Muzzafarpur),004-MGD4PTN,26.142777777777777,85.3761111111111
Gunupur,035-ERDBWN,19.083333333333332,83.80555555555556
Mathabhanga,028-LBDJPG,26.325277777777778,89.23444444444445
Dowlaiswaram (State Govt Site),028-LGDHYD,16.938333333333333,81.7825
Pauni,009-WGDNGP,20.795,79.64944444444446
Nimapara,039-mdburla,20.060000000000002,86.01
Lalbegiaghat,002-MGD4PTN,26.658708333333333,85.013675
Samastipur,005-mgd4ptn,25.860555555555557,85.80444444444444
Khagaria,007-mgd4ptn,25.487222222222222,86.4375
Dhubri,005-LBDJPG,26.01,89.99
Lucknow (Hanuman Setu),014-mgd2lkn,26.861944444444447,80.94611111111111
Ankinghat,011-mgd2lkn,26.93305555555556,80.03277777777778
Haridwar (Dudhia Band),015-HGDDDN,29.979999999999997,78.19
KUMBIDI,008-SWRDKOCHI,10.854444444444445,76.02
Delhi Railway Bridge,015-UYDDEL,28.662499999999998,77.24888888888889
Farakka(FF),028-MGD5PTN,24.8,87.92
Madduvalasa,047-ERDBWN,18.63,83.22
AURAIYA,005-LYDAGRA,26.429166666666667,79.47805555555556
Garudeshwar,003-TDSURAT,21.89,73.65
Bharuch,004-TDSURAT,21.7,73.0
Sirpur (Town),028-wgdngp,19.509722222222223,79.58638888888889
DAMAN,032-TDSURAT,20.41,72.83999999999999
RAVISHANKAR SAGAR DAM,060 MDBURLA,20.610000000000003,81.56
Karimganj,021-MBDGHY,24.878611111111113,92.35666666666665
Mandla,010-NDBHP,22.593888888888888,80.37388888888889
Nanded,015-UGDHYD,19.15,77.31
Rosera,006-mgd4ptn,25.749722222222225,86.02111111111111
Narmadapuram,016-NDBHP,22.76,77.69
Surat,023-TDSURAT,21.2,72.82
Bawanthadi Reservoir,033-wgdngp,21.541666666666668,79.54166666666667
Rothak,DWRIS-05,27.171666666666667,88.29944444444445
Kolar Reservoir,NBO-2-050-1251,22.961944444444445,77.34277777777777
Bhagalpur,006-mgd5ptn,25.269444444444442,87.01555555555555
Mawi ,012-UYDDEL,29.3825,77.15444444444445
Chatia,010-mgd4ptn,26.532777777777778,84.5586111111111
Manas N H Crossing,004-LBDJPG,26.464166666666667,90.75
Hajipur,011-MGD5PTN,25.689444444444444,85.19666666666667
Gangpur Siswan,013-MGD5PTN,25.940277777777776,84.39194444444445
Chhapra,014-MGD5PTN,25.754166666666666,84.7875
Sripalpur,021-mgd5ptn,25.50027777777778,85.10944444444443
MOHANA,009-LYDAGRA,25.82361111111111,79.4625
Elginbridge,010-MGD1LKn,27.0952,81.48606666666667
Jaunpur,010-mgd3vns,25.749166666666667,82.67194444444445
PHAPHAMAU,002-MGD3VNS,25.504166666666666,81.86333333333333
ETAWAH,002-LYDAGRA,26.746666666666666,78.98666666666666
Sahibganj,008-MGD5PTN,25.247777777777777,87.64916666666667
Naharkatia,012-ubddib,27.29388888888889,95.33138888888888
Kakardhari,003-MGD1LKN,27.89527777777778,81.77444444444444
Dibrugarh,010-UBDDIB,27.488611111111112,94.90972222222223
Maner,027-MGD5PTN,25.692222222222224,84.87277777777777
Badatighat,022-UBDDIB,26.948911111111112,93.96211111111111
Dighaghat,002-MGD5PTN,25.648333333333333,85.06777777777778
Dhengraghat,030-mgd4ptn,25.850555555555555,87.80611111111111
Jhawa,031-mgd4ptn,25.61277777777778,87.78722222222223
Basua,023-mgd4ptn,26.108333333333334,86.52833333333334
GodavariRlyBridge(Rajahmundry),027-LGDHYD,17.006944444444443,81.76694444444445
Neamatighat,019-UBDDIB,26.860561111111114,94.25160555555556
Rewaghat,009-MGD5PTN,25.992222222222225,85.05222222222221
Badarpur Ghat,01-11-01-006,24.87527777777778,92.57833333333333
Rishikesh,014-HGDDDN,30.110000000000003,78.31
Golokganj,008-LBDJPG,26.107222222222223,89.8236111111111
Kannauj,004-MGD2LKN,27.012777777777778,79.98416666666667
Mathura (Prayag ghat),017-UYDDEL,27.50412222222222,77.68723333333334
Rae bareli,016-mgd2lkn,26.203333333333333,81.24666666666667
Govindpur (NH5 Road Bridge),005-ERDBWN,21.547777777777778,86.91805555555555
Badarpurghat,011-MBDGHY,24.87527777777778,92.57833333333333
Kachhlabridge,002-mgd2lkn,27.931944444444447,78.8625
Mirzapur,005-mgd3vns,25.1546,82.5296
Turtipar,012-MGD1LKN,26.141111111111112,83.87472222222222
Guwahati(D.C.Court),001-MBDGHY,26.190277777777776,91.745
Ghazipur,007-MGD3VNS,25.580016666666666,83.58834999999999
Chenimari (Khowang),013-UBDDIB,27.31222222222222,94.88166666666666
Gandhighat,003-MGD5PTN,25.621944444444445,85.17111111111112
Hayaghat,018-mgd4ptn,26.0375,85.8863888888889
Kopergaon,006-UGDHYD,19.89,74.49
Pagladiya N T Road Crossing,004-MBDGHY,26.45,91.46
AGRA (J.B.),001-LYDAGRA,27.19,78.03
Dhansa,022-UYDDEL,28.534444444444446,76.87055555555555
Gangakhed W/L Station,012-UGDHYD,18.979999999999997,76.75
Mantralayam,013-lkdhyd,15.94,77.42
Jagdalpur,006-LGDHYD,19.108055555555556,82.02277777777778
Bhadrachalam,017-LGDHYD,17.669444444444444,80.87388888888889
NT Road Crossing Jia-Bharali,030-UBDDIB,26.810000000000002,92.87972222222221
Baltara,024-MGD4PTN,25.54138888888889,86.7225
Ranganadi NT Road crossing,36-UBDDIB,27.204275,94.05960555555555
Jhanjharpur,021-MGD4PTN,26.22611111111111,86.25611111111111
Balrampur,018-MGD1LKN,27.435277777777777,82.22944444444444
SAHIJINA,0010-LYDAGRA,25.94472222222222,80.15333333333334
Kunavaram,024-LGDHYD,17.5675,81.25
Mekhliganj (R/B),023-LBDJPG,26.328888888888887,88.8625
Ballia,008-MGD3VNS,25.75,84.38333333333334
Sivasagar,018-ubddib,26.98173611111111,94.57904166666667
Dumariaghat,011-mgd4ptn,26.358861111111114,84.74814722222223
Bansi ,019-MGD1LKN,27.189166666666665,82.94
Kampur,033-UBDDIB,26.152777777777775,92.65333333333334
Warna Dam,034-UKDPUNE,17.13,73.86
Subansiri Lower Dam,054-UBDDIB,27.553611111111113,94.25861111111111
NAINI,020-LYDAGRA,25.42,81.83999999999999
Gandhi Sagar Reservoir,007-CDJAIPUR,24.65,75.61
Matijuri,015-MBDGHY,24.649444444444445,92.60888888888888
Sathanur Dam,031-HDCHENNAI,12.2,78.58999999999999
Krishnarajasagar Reservoir,0034-cdbng,12.425594444444444,76.57249999999999
Khadda,009-MGD4PTN,27.23084722222222,83.8758611111111
BANDA,014-LYDAGRA,25.481388888888887,80.31222222222222
Paonta,008-UYDDEL,30.417705555555557,77.62275833333332
Musi Dam,0031-LKDHYD,17.235,79.52
Dabri,010-mgd2lkn,27.498055555555556,79.69722222222222
Grand Anicut,0026-srdcbe,10.83,78.81888888888888
Hathnikund Barrage,009-UYDDEL,30.314444444444444,77.585
Dheng Bridge,015-mgd4ptn,26.7229,85.32715833333333
HARINKHOLA,015-DDASL	,22.83861111111111,87.90361111111112
Golaghat,026-UBDDIB,26.503747222222223,93.95166666666667
Passighat,005-UBDDIB,28.07777777777778,95.33555555555554
Rajghat,012-erdbwn,21.767777777777777,87.16416666666667
Hasimara,029-LBDJPG,26.729166666666664,89.32583333333334
Idamalayar Reservoir,0025-SWRDKOCHI,10.22,76.7
Dummagudem,016-LGDHYD,17.852500000000003,80.88
Dantiwada Dam,030-MAHGAND ,24.338055555555556,72.33916666666666
Kaleswaram,002-LGDHYD,18.82,79.91000000000001
Mohanpur,032-ADSL,22.398333333333333,87.3436111111111
Mathanguri,001-LBDJPG,26.781944444444445,90.95722222222223
Singtam,DWRIS-04,27.231666666666666,88.49916666666667
Rammunshibagh (near Srinagar),005-jhelum,34.06944444444445,74.8386111111111
Safapora,006-chejmu,34.24611111111111,74.6325
Sonbarsa,012-mgd4ptn,26.841388888888886,85.58555555555554
Eturunagaram,015-LGDHYD,18.32,80.46000000000001
Varanasi,006-MGD3VNS,25.325833333333332,83.03999999999999
Srikakulam,040-erdbwn,18.313333333333333,83.88416666666667
Chouldhowaghat,021-UBDDIB,27.448805555555555,94.25008333333334
Kokrajhar,039LBDJPG,26.39611111111111,90.25416666666666
Runisaidpur,016-mgd4ptn,26.346083333333333,85.48632222222223
Jalaput dam (Machkund),49-LGDHYD,18.453888888888887,82.54694444444445
Katerniaghat Barrage,052-MGD1LKN,28.27,81.08999999999999
Barna Reservoir,NBO-1-028-1230,23.05,78.06
Garhmukteshwar,017-MGD2LKN,28.761388888888888,78.14250000000001
Allahabad,003-MGD3VNS,25.403055555555554,81.9113888888889
GHEROPARA,025-DDASL,23.618055555555557,87.70305555555557
Buxar,001-MGD5PTN,25.578611111111112,83.97555555555556
Karnal,011-UYDDEL,29.762183333333333,77.13166666666666
Koelwar,026-MGD5PTN,25.57138888888889,84.79777777777778
Benibad,017-mgd4ptn,26.14472222222222,85.69222222222223
HAMIRPUR,016-LYDAGRA,25.960277777777776,80.1538888888889
Kamtaul,013-mgd4ptn,26.3475,85.80138888888888
Ghugumari,030-LBDJPG,26.28666666666667,89.45972222222223
Tufanganj,025-LBDJPG,26.308611111111112,89.68194444444445
Beki Road bridge,002-LBDJPG,26.49388888888889,90.91777777777779
Dholabazar,007-UBDDIB,27.76361111111111,95.56611111111111
Naraj,036-MDBURLA,20.47,85.77
Birdghat ,023-MGD1LKN,26.72972222222222,83.34972222222221
KALPI,006-LYDAGR,26.129166666666666,79.75944444444444
DOMOHANI,022-LBDJPG,26.56277777777778,88.76166666666667
Namsai,009-UBDDIB,27.635555555555555,95.84805555555555
Narayanpur,022-DDASL,23.884166666666665,87.91555555555556
Indrapuri,023-MGD5PTN,24.839444444444442,84.13222222222221
Malaprabha Dam,037-UKDPUNE,15.821408333333332,75.09671388888889
HATHNUR,016-TDSURAT,21.07,75.95
Indrapuri Barrage,073-mgd5ptn,24.75,84.16
Gosikhurd Dam,032-wgdngp,20.871944444444445,79.60388888888889
PVNRao Kantanapally Project,034-LGDHYD,18.58611111111111,80.39333333333335
Ahirwalia,003-mgd4ptn,26.415277777777778,85.06611111111111
Gambhiri Dam,042CDJAPR,24.699444444444445,74.71555555555555
Gomukhi Dam,030-HDCHENNAI,11.8,78.81
Bhavani Sagar Dam ,0025-srdcwc,11.47,77.1
Batane,38mgd5ptn,24.42,84.26
Wellington Reservoir,032-hydchennai,11.4,79.08999999999999
Narayanapur Reservoir,002-LKDHYD,16.2,76.36
Vaigai Reservoir,022-SRDCBE,10.053333333333335,77.58916666666666
Hemavathy Reservoir,0032-cdbng,12.821961111111111,76.05423333333333
Sripada Yellampalli Project,027-ugdhyd,18.844166666666666,79.37277777777777
Veer Dam,033-UKDPUNE,18.12,74.08999999999999
Hidkal Reservoir,038-UKDPUNE,16.14318611111111,74.64265
Hathidah,004-MGD5PTN,25.371111111111112,85.99388888888889
Ujjani Reservoir,035-UKDPUNE,18.07,75.11999999999999
Thottapalli R/s (APSDPSData),039-erdbwn,18.779999999999998,83.49
KODAGANAR DAM,041-SRDCBE,10.593055555555557,77.97194444444445
Nasik,003-ugdhyd,20.001944444444444,73.80333333333333
Jaldhaka NH-31,027-LBDJPG,26.56972222222222,88.9375
Koyna,032-UKDPUNE,17.4,73.75
Kashinagar,036-ERDBWN,18.848333333333333,83.87305555555555
Puthimari NH Rd Xing,006-MBDGHY,26.366388888888892,91.65333333333334
Bansagar Dam_1,0026-mgd3vns,24.191666666666666,81.2875
Hinglow Dam,042-DDASL,23.821944444444444,87.19944444444445
Jaikwadi Dam,009-UGDHYD,19.487222222222222,75.3711111111111
Harangi Reservoir,0031-CDBNG,12.493799999999998,75.9054138888889
Srisailam Reservoir,016-lkdhyd,16.08,78.9
Tungabhadra Dam,010-lkdhyd,15.26,76.33999999999999
P.D. Jurala,009-lkdhyd,16.33,77.7
Bhadra Reservoir,0037-CDBNG,13.701352777777776,75.63661111111112
Rengali Reservoir,061-ERDBWN,21.279999999999998,85.03
Almatti Reservoir,001-LKDHYD,16.33,75.88
Annaraj Dam,42mgd5ptn,24.05,83.81
Mettur Reservoir,0024-srdcwc,11.8,77.8
Chembarampakkam,0033-hydchennai,13.01,80.08
Poondi Satyamoorthy Reservoir,029-hydchennai,13.18,79.86
Som Kamla Amba Dam,011-MAHGAND,23.97833333333333,74.0325
Karanja Dam,037-UGDHYD,17.88,77.31
Manjlegaon,035-UGDHYD,19.15,76.18
Idukki (Eb)/Idukki Arch Reservoir,0024-SWRDKOCHI,9.84,76.97
Chandil Dam,0038-ERDBWN,22.97,86.05
Kabini Reservoir,0033-cdbng,11.973391666666666,76.35275
Salandi Reservoir,055-erdbwn,21.279999999999998,86.3
Getalsud Reservoir,057-erdbwn,23.45,85.55
Ranapratap Sagar Reservoir,045-CDJAPR,24.92,75.58
KOSI BARRAGE,062-MGD4PTN,26.52,86.92
Panam Dam,010-MAHGAND,23.054166666666667,73.71666666666667
Singatalur Barrage,039-LKDHYD,15.030000000000001,75.83
DR KLRS Pulichintala Dam,0029-LKDHYD,16.75,80.05
Kadana Dam,007-MAHGAND,23.30527777777778,73.82472222222222
Upper Tunga Prject,0036-CDBNG,13.843333333333334,75.52638888888889
Narayanpuram Anicut,056-erdbwn,18.479999999999997,83.8
Banbasa Barrage,051-MGD1LKN,28.995555555555555,80.10555555555555
RAJGHAT DAM,031-LYDAGRA,24.76,78.23
Matatila Reservoir,030-LYDAGRA,25.1,78.36
Mahi Bajaj Sagar Dam,005-MAHGAND,23.628611111111113,74.54722222222222
Hipparagi Barrage,036-UKDPUNE,16.55,75.16000000000001
KODUMUDI,011-SRDCBE,11.08,77.89
Sriram Sagar Reservoir,023-UGDHYD,18.97,78.33999999999999
Nizamsagar Reservoir,019-UGDHYD,18.22,77.96000000000001
Yeldari Reservoir,036-UGDHYD,19.71,76.75
Sangam,002-jhelum,33.833333333333336,75.06694444444445
Sunkesula Barrage,0030-LKDHYD,15.88,77.83
Galudih Barrage,058-erdbwn,22.64,86.39
Massanjore Dam,018-DDASL,24.10638888888889,87.30722222222222
Indira Sagar Reservoir,NBO-1-046-1247,22.279999999999998,76.47
Upper Kolab Dam ,48-lgdhyd,18.788611111111113,82.60083333333333
Upper Indravati Dam,47-LGDHYD,19.27611111111111,82.82833333333333
BANGODAM RESERVOIR,061 MDBURLA,22.59,82.57
Bisalpur Reservoir,0022-cdjaipur,25.92,75.45
"Ch. Charan Singh Madhya Ganga Barrage, Bijnor",016-HGDDDN,29.372777777777777,78.03833333333333
RIHAND DAM,014-mgd3vns,24.21,83.02
ITCHAPURAM,ITCHAPURAM,19.098333333333333,84.67861111111111
Wanakbori Weir,008-MAHGAND,22.9475,73.42944444444444
Teesta -V Dam,FF-5,27.25,88.45
Sardar Sarovar Project_Gujarat Reservoir,66,21.82472222222222,73.74166666666667
Rangit- 3 Dam,FF - 2,27.290000000000003,88.28999999999999
Bargi Reservoir,NBO-2-055-1257,22.94,79.92
MADHUBAN DAM,028-TDSURAT,20.19,73.06
SUNDAR DAM,036-DDASL,24.93,87.38
Panchat Reservoir,010-DDASL	,23.68,86.75
UPPER ANICUT,042-SRDCBE,10.88861111111111,78.58
Polavaram Irrigation Project,031-LGDHYD,17.2925,81.64361111111111
Pench Reservoir,CW1WEI000073,21.65833333333333,79.23333333333333
Srinagar,007-HGDDDN,30.228888888888886,78.78666666666666
Kaddam Dam,026-ugdhyd,19.1,78.78999999999999
BHAIRWA DAM,37-DDASL,23.523055555555555,85.6725
GANDAK BARRAGE,061-MGD4PTN,27.43,83.9
Balimela dam (Sileru),50-LGDHYD,18.140277777777776,82.12277777777777
Rangpo Dam,FF- 3,27.240000000000002,88.71000000000001
Rongli Dam,FF- 4,27.2,88.71000000000001
Mula Dam,034-UGDHYD,19.35,74.6
Gotta Barrage,037-ERDBWN,18.688055555555557,83.96388888888889
Tilpara  Mihirlal Barrage,020-DDASL,23.94638888888889,87.525
SIKATIYA  BARRAGE,023-DDASL,24.15,86.25
Kangsabati Reservoir,030-DDASL,22.965,86.79027777777777
Mathani Road Bridge,060-erdbwn,21.66,87.06
Hirakud Reservoir,012-MDBURLA,21.52,83.85
NMD-Weir,005-ugdhyd,20.009166666666665,74.13194444444444
NARORA Barrage,001-MGD2LKN,28.189444444444444,78.39611111111111
Sanjay Sarovar Project,CW1WEI000075,22.377222222222223,79.66361111111112
Upper Wardha Project,CW1WAR000074,21.275277777777777,78.0586111111111
Isapur Reservoir,CW1WAR000076,19.725555555555555,77.43472222222222
Tilaiya Reservoir,001-DDASL	,24.32,85.52
Maithon Reservoir,005-DDASL	,23.779999999999998,86.81
Omkareshwar (NHPC) Reservoir,NBO-1-055-1259,22.240000000000002,76.16000000000001
Kalagarh Dam,074-MGD2LKN,29.52027777777778,78.75916666666667
DURGAPUR BARRAGE,013-DDASL	,23.46638888888889,87.31638888888888
Somasila Dam,004-hydchennai,14.48,79.3
Nanglamoraghat,016-UBDDIB,26.98488888888889,94.77666666666667
Deongaon Bridge,005-LKDHYD,17.17,76.33
KAILASHAHAR GDSQ SITE,014-MDSIL,24.3175,91.99388888888889
Pench Reservoir (Machagora Dam),034-wgdngp,22.119444444444444,79.17361111111111
Konar Reservoir,011-DDASL	,23.929444444444446,85.76194444444444
CHILLAGHAT,017-LYDAGRA,25.77,80.53
Atreyapuram (Gauthami),032-LGDHYD,16.815,81.81638888888888
Arjunwad (Seasonal),004-UKDPUNE,16.781944444444445,74.63222222222221
Teesta- 3 Dam,FF-1,27.5975,88.65055555555556
Kurnool Town,037-LKDHYD,15.845,78.0375
Prakasam Barrage,024-LKDHYD,16.5,80.6
Avanigadda,038-LKDHYD,16.02,80.91000000000001
MUTHANKERA,003-SWRDKOCHI,11.808055555555557,76.08416666666666
SAVANDAPUR,008-SRDCBE,11.520000000000001,77.51
Moradabad,008-mgd2lkn,28.825555555555557,78.79833333333333
Ganga Nagar,012-HGDDDN,30.400555555555552,79.04194444444444
MUSIRI,013-SRDCBE,10.938055555555556,78.44027777777778
MADIKHERA(ATAL SAGAR) DAM,070-LYD AGRA,25.555555555555557,77.85277777777777
Sonapur,041LBDJPG,26.454166666666666,88.24444444444444
Matigara,040LBDJPG,26.720277777777778,88.37777777777777
Karnaprayag (A),057-HGDDDN,30.265,79.21444444444445
DUDHNAI,bv000f5,25.980555555555554,90.79055555555556
Dudhnoi,BV000FS,25.980555555555554,90.79055555555556
SONAPUR,BKA00D7,26.12027777777778,91.97833333333334
Chimpu,0010NEID3,27.066666666666666,93.60027777777778
FARAKKA,003-LGD3BEH,24.790833333333335,87.93666666666667
Mohammad Ganj,025-mgd5ptn,24.430833333333336,83.86222222222221
Yazali,046,27.395263888888888,93.75739166666666
PANGKHUAH,022-NEID2,22.78527777777778,93.085
Palwa,023-CDJAPR,23.163055555555555,75.41000000000001
NATHPA,003-SHDSIM,31.56638888888889,77.98305555555555
BAMRUL,055-TDSURAT,20.662499999999998,75.27027777777778
Marshaghai ,032-MDBURLA,20.3325,86.48083333333334
PANCHARATNA,BB000D6,26.199722222222224,90.57388888888889
KATRAGADDA,KATRAGADDA,18.99361111111111,83.81194444444444
Gaura,036-UYDDEL,30.897222222222222,77.19666666666667
Chepan,024-LBDJPG,26.492222222222225,89.70083333333334
Kakrahi,025-MGD1LKN,27.236666666666668,82.9961111111111
Mount Abu,040-MAHGAND,24.586944444444445,72.70361111111112
Nahargarh,034-CDJAPR,24.18722222222222,75.23944444444444
Paragaon,029-ukdpune,18.56833333333333,74.38055555555555
Chupkoli,057-mgd2lkn,28.690555555555555,77.84972222222221
PIMPRI,040-TDSURAT,21.128333333333334,75.66722222222222
Kasmara,038-mgd2lkn,27.127222222222223,79.28833333333333
Ganeshpura_1,018-chejmu,33.903888888888886,75.28194444444445
Panposh,019-ERDBWN,22.226388888888888,84.80611111111111
Muri,007-ERDBWN,23.370555555555555,85.86916666666666
TALASWADA,041-TDSURAT,20.946666666666665,76.20305555555557
Vautha,021MAHGAND,22.650277777777777,72.535
Sapawada,038MAHGAND,23.547500000000003,72.01527777777778
Amarpur,019-MBDGHY,23.528333333333332,91.65277777777779
Mandleshwar,017-NDBHP,22.171666666666667,75.66083333333334
Bamni,002-NDBHP,22.484166666666667,80.36194444444443
Handia,014-NDBHP,22.491666666666667,76.99388888888889
Awalighat,NBO-2-036-1237,22.649444444444445,77.48833333333333
URACHIKOTTAI,009     -srdcbe,11.477777777777778,77.7
MOORANG,002-SHDSIM(a),31.605555555555558,78.43583333333333
Harangajao,030-MBDGHY,25.115555555555556,92.85666666666665
Mahulpali,001-mdburla,21.949722222222224,83.41666666666667
Dharasu,019-HGDDDN,30.610833333333336,78.31638888888888
Salebhata,014-MDBURLA,20.983055555555556,83.53944444444444
Seohara,056-mgd2lkn,29.23888888888889,78.65694444444445
Kesinga,022-MDBURLA,20.1975,83.22500000000001
Kantamal,023-MDBURLA,20.65833333333333,83.73194444444445
Deogaon,030-MDBURLA,21.309166666666666,83.89972222222222
Khairmal,031-MDBURLA,20.830555555555556,84.0
Padampur,058-MDBURLA,21.015833333333333,83.10305555555556
Kanas (S),033-MDBURLA,20.003611111111113,85.6438888888889
Pubansa (S),040-MDBURLA,20.444166666666668,86.2475
MAIGHAT,018-mgd3vns,25.638777777777776,82.86108888888889
Jotte,008NEID3,27.042222222222225,93.46166666666667
PANBARI,003-LBDJPG,26.591666666666665,90.83
SAGBARA,057-TDSURAT,21.543055555555558,73.795
Fatehgarh,038-UYDDEL,30.172222222222224,77.39222222222223
Muradpur,041-ukdpune,17.539722222222224,73.52388888888889
Kukkalthurai,039-SRDCBE,11.485555555555555,76.8325
Indo-Nepal Border (Bhutahi),039-MGD4PTN,26.72083333333333,85.54416666666667
TIGHARA,065-LYDAGRA,24.249166666666667,80.25166666666667
Borwa,010213ua1,23.21611111111111,74.78
Somanpally (Seasonal),001-lgdhyd,18.616666666666667,79.8
Bhatpura,054-mgd2lkn,28.80888888888889,79.20916666666668
Purwamir,041-mgd2lkn,26.199444444444445,80.5375
Maigalganj,026-mgd2lkn,27.738333333333333,80.26694444444445
FARAKKA(HR),004-LGD3BEH,24.799166666666668,87.91638888888889
Pipalkoti,022-HGDDDN,30.42027777777778,79.41416666666667
Ghodopipli,040-UYDDEL,30.090555555555554,77.40833333333335
Sataynarayan,018-HGDDDN,30.051666666666666,78.21833333333333
THOTTATHINKADAVU,027-SWRDKOCHI,11.361944444444443,76.00194444444445
AKOLA,037-TDSURAT,20.708055555555553,76.99305555555556
Pancheshwar,004-MGD1LKN,29.438055555555557,80.24583333333334
KIRAOLI,032-LYDAGRA,27.124166666666667,77.7425
NAUTGHAT,008-LYDAGRA,25.391388888888887,78.62777777777777
RUPAS NAGAR,034-LYDAGRA,27.12138888888889,78.53277777777778
KHOLWAD(KATHORE),061-TDSURAT,21.284722222222225,72.95055555555555
Suyalbari,058-mgd2lkn,29.540000000000003,79.55333333333333
Pupunki,009-DDASL	,23.714444444444442,86.20222222222222
PACHAWALI,GYN00N6,25.101111111111113,77.64777777777779
Madhira,022-LKDHYD,16.918055555555558,80.35888888888888
BEHMAI,042-LYDAGRA,26.255555555555556,79.59444444444443
Targaon,040-UKDPUNE,17.517777777777777,74.14611111111111
DHUPESHWAR,042-TDSURAT,20.9575,76.27916666666667
NAWTHA,043-TDSURAT,21.4325,76.43777777777778
PURNAGIRI,005PURNA,29.133055555555558,80.2
RUPALIGAD,006RUPALI,29.283333333333335,80.3
WANKHED,039-TDSURAT,20.988333333333333,76.71666666666667
BATESHWAR,033-LYDAGRA,26.941666666666666,78.57333333333332
Rampur-GP,022-MGD2LKN-GP,28.78638888888889,78.9863888888889
Therriaghat,01-10-09-001,25.18,91.75638888888889
KULSI,BY00045,25.979166666666664,91.38583333333334
Jalalpur,017-MGD3VNS,25.630277777777778,82.75666666666666
Haripur,005-UYDDEL,30.537188888888892,77.82591944444444
RAJGHAT,024-LYDAGRA,24.246111111111112,78.17916666666667
Dadahu/Renuka,034-UYDDEL,30.604444444444447,77.44111111111111
Kathgodam,047-mgd2lkn,29.2675,79.54833333333333
KORA-OLD,GYI00A3,26.10611111111111,80.05055555555555
Mayambadi,033-HDCHENNAI,11.737499999999999,78.79083333333332
Kalsi,033-UYDDEL,30.526944444444442,77.85305555555556
YETIKOPPAKA,YETIKOPPAKA,17.488333333333333,82.74277777777777
Jhokho,024-MGD3VNS,24.42638888888889,82.20611111111111
Gandhavayal,035-SRDCBE,11.374166666666667,76.99222222222222
Sibbari,01-10-02-001,25.190555555555555,90.49805555555555
Japla,022-mgd5ptn,24.566944444444445,83.97583333333334
MURUMSILLI,066-MDBURLA,20.611111111490164,81.68166666636755
Barabisha,006-LBDJPG,26.47472222222222,89.7863888888889
Kalpadai,034-HDCHENNAI,11.787222222222223,78.78666666666666
Birahi,031-HGDDDN,30.408055555555553,79.3888888888889
Fekoghat,011-ERDBWN,22.308611111111112,86.91638888888889
Una,0102009002,20.826944444444443,71.0475
Monierkhal,009-mdsil,24.583055555555557,92.9563888888889
Chhidgaon,004-NDBHP,22.40583333333333,77.30777777777777
Pati,005-NDBHP,21.94361111111111,74.745
Belkhedi,020-NDBHP,22.92777777777778,79.33972222222222
Alandurai,036-SRDCBE,10.951944444444443,76.78527777777778
Dhulsar,021-NDBHP,22.205555555555556,74.85166666666666
Sairang,010-mdsil,23.811944444444446,92.65
VELDA,058-TDSURAT,21.479166666666664,74.14361111111111
Melaganur,030-LKDHYD,15.845555555555556,77.02527777777777
Piprauli,048-UYDDEL,27.828055555555554,77.15805555555556
Lalganj,030-mgd2lkn,26.11138888888889,80.92222222222223
Gadarwara,019-NDBHP,22.92388888888889,78.79166666666667
Khandiovari,010213ua3,24.010833333333334,73.66361111111112
Gandhav ,036-MAHGAND ,24.990833333333335,71.68111111111112
Balotra ,035-MAHGAND ,25.824166666666667,72.21944444444445
Sitapur,031_mgd2lkn,27.571944444444444,80.68583333333333
PUTKI,041-DDASAL,23.75638888888889,86.35208333333333
NUTANHAT,026-DDASL,23.545555555555556,87.90694444444445
NAUKUCHIATAL,NAUKUCHIATAL1,29.318555555555555,79.58416666666666
RAMESHWAR,004RAMES,29.533055555555556,80.1
Singlabazar,010-LBDJPG,27.130555555555556,88.2786111111111
Rangpo,009-LBDJPG,27.171666666666667,88.52972222222222
Fakirabazar,01-11-03-001,24.860833333333336,92.29027777777777
Sip at Dholpur,NBO-0-039-1240,22.605833333333333,77.19555555555556
Harshil,028-HGDDDN,31.035,78.75027777777778
Tusuma,029-DDASL,23.104444444444447,86.66166666666668
Astha,026-CDJAPR,23.035833333333336,76.73555555555555
Chittorgarh,014-CDJAPR,24.883055555555558,74.63222222222221
Simulia,028-ddasl,23.28777777777778,86.36027777777777
Meerganj,034-MGD2lkn,28.51861111111111,79.25166666666667
HARUR,031-SRDCBE,11.902777777777779,78.33
KUNIYIL,005-SWRDKOCHI,11.239444444444443,76.02333333333333
Kasganj,039-Mgd2lkn,27.787222222222223,78.6275
Phulberia,027-DDASL,22.91916666666667,86.62694444444443
Amarpura,010213ub3,24.287222222222223,73.84638888888888
Ahrora,029-mgd3vns,25.08277777777778,82.92083333333333
Koilari,057-MGD3VNS,23.977777777777778,81.51333333333334
Churhat,027-MGD3VNS,24.372777777777777,81.60333333333332
Nandprayag,021-HGDDDN,30.331944444444446,79.31027777777777
POOKKAYAM,026-SWRDKOCHI,12.458458333333333,75.27633888888889
Tonk,009-CDJAPR,26.197222222222223,75.84166666666667
KARATHODU,006-SWRDKOCHI,11.056944444444445,76.03944444444444
Chhasara,010214001,23.349166666666665,68.76861111111111
CHAKKALAKUTH,024-SWRDKOCHI,11.264166666666666,76.23861111111111
Palwal/Rahimpur,047-UYDDEL,28.09472222222222,77.47722222222222
Sohagpura,010213ub1,23.915277777777778,74.70222222222222
Dhond,016-ukdpune,18.473888888888887,74.57638888888889
Dubi,031-CDJAPR,26.189166666666665,76.36694444444444
Hiran at Singaldeep,NBO-1-017-1218,23.387777777777778,79.915
Titawi,042-UYDDEL,29.47722222222222,77.51805555555555
AGRA(POIYAGHAT),023-LYDAGRA,27.254722222222224,78.02333333333333
BHIND,GYN10F5,26.621944444444445,78.83749999999999
DHARCHULA,003DHAR,29.85,80.55
SHIRPUR,050-TDSURAT,21.339444444444442,74.89
YERLI,012-TDSURAT,20.93638888888889,76.47416666666666
Samdoli (Seasonal),003-UKDPUNE,16.85638888888889,74.49666666666667
Barodiya,029-CDJAPR,24.433611111111112,76.34055555555555
Shergarh,050-UYDDEL,27.796666666666667,77.61472222222221
Shekhpura (Barnawa),044-UYDDEL,29.1075,77.42194444444445
Panchkuan,039-UYDDEL,30.13111111111111,77.46722222222222
Anupshahar,051-mgd2lkn,28.36388888888889,78.27888888888889
Nagina,044-mgd2lkn,29.436944444444446,78.47777777777777
Prakasam Barrage,Prakasambarrage,16.500000000350887,80.5333333337963
Gaurikund,029-HGDDDN,30.654166666666665,79.02777777777777
Porakudi,026-HYDCHENNAI,10.903611111111111,79.70722222222223
Beda at Satwadi(Gogawa),NBO-2-051-1252,21.919444444444444,75.74666666666667
Jamtara1,024-DDASL,23.977777777777778,86.85499999999999
Rajoli,021-wgdngp,20.19361111111111,79.66611111111112
Yashwant Nagar,006-UYDDEL,30.88222222222222,77.20944444444444
Bana,028-UBDDIB,26.99999999996205,94.00000000002788
LALPUR,GYL00B7,26.307222222222222,79.92
Mohana,032-ERDBWN,19.44472222222222,84.26138888888889
Altuma,018-ERDBWN,20.930833333333336,85.51916666666666
Sitekasa,005-wgdngp,21.58111111111111,79.8
Bani,015-mgd2lkn,26.651666666666664,80.79472222222222
Attal,030-UYDDEL,30.064444444444444,77.76055555555556
Parkham,049-UYDDEL,27.296944444444446,77.72833333333334
GARRAULI,011-LYDAGRA,25.080833333333334,79.34333333333333
ANIPUR,008-MDSIL,24.54361111111111,92.43305555555555
Lakhipur,009-MBDGHY,24.791666666666668,93.00472222222223
Rahu,043-UKDPUNE,18.572222222222223,74.27361111111111
 Sandia,013 NDBHP,22.91583333333333,78.3475
Gopurajapuram,027-HYDCHENNAI,10.850555555555555,79.78944444444444
D/S HOSHANGABAD,NDB-WQSS-202012,22.7575,77.68805555555556
Kabu basti (Kambang),048,28.192777777777778,94.77027777777778
Hayuliang,047,28.073888888888888,96.49638888888889
Motipur,050,27.5075,96.16000000000001
Palakmati at Sohagpur,NBO-1-031-1232,22.70722222222222,78.19416666666667
Naugaon,001-UYDDEL,30.791666666666668,78.13805555555557
Oollenur,011-LKdhyd,15.491944444444444,76.7175
Seppa,027-UBDDIB,27.358611111111113,93.03972222222222
Jeypore,003-ERDBWN,21.609166666666667,86.68333333333334
Manjhawali,041-UYDDEL,28.373333333333335,77.48833333333333
Mejaroad,021-MGD3VNS,25.2375,82.03777777777778
Keesara,021-LKDHYD,16.71472222222222,80.32027777777778
Akbarpur,019-MGD3VNS,26.429166666666667,82.54861111111111
Ram nagar Barrage,046-mgd2lkn,29.15861111111111,79.03888888888889
Khandapara,038-MDBURLA,20.2575,85.18555555555555
Padmavati,035-MDBURLA,20.01,85.2975
Maan at Gopalpura,NBO-2-054-1255,22.271666666666665,75.10472222222222
Galgalia,026-mgd4ptn,26.519444444444442,88.10583333333332
Gangotri,030-HGDDDN,30.99388888888889,78.94027777777778
Sakra,033-MGD4PTN,26.040555555555557,85.55499999999999
Ghugus,013-wgdngp,19.95583333333333,79.10083333333333
Wairagarah,020-wgdngp,20.421944444444446,80.09166666666667
Salebardi,019-WGDNGP,20.912499999999998,79.92722222222223
Shahjahanpur,032-mgd2lkn,27.836944444444445,79.91000000000001
PERUMANNU,002-SWRDKOCHI,11.9823,75.58415833333333
Ratanpuri,043-UYDDEL,29.273055555555555,77.6
GHALA,022-TDSURAT,21.297222222222224,73.02527777777777
Chakghat,031-MGD3VNS,25.033333333333335,81.73472222222222
TENDUI,047-MGD3VNS,25.380277777777778,82.8286111111111
MAU,040-MGD3VAR,26.947777777777777,83.57583333333334
Ashatpur,039-mgd3vns,25.666666666666668,83.55416666666666
REWA,38-MGD3VNS,24.774444444444445,81.25972222222222
Chansura,043-MGD3VNS,23.866944444444446,81.21583333333334
NIWARI,036-MGD3VNS,24.603611111111114,82.77638888888889
Durgawati,041-MGD3VNS,25.21638888888889,83.51638888888888
NAURHIA,034-MGD3VNS,24.191388888888888,81.47944444444444
Venganur,037-HDCHENNAI,11.443055555555556,79.02444444444444
TAMEN,070-UBDDIB,27.7599,94.009
THENGUMARAHADA,005-srdcbe,11.572777777777777,76.91916666666667
AYILAM ,021-SWRDKOCHI,8.715277777777777,76.85416666666666
Kaner at Mendhikheda,NBO-2-047-1248,22.40861111111111,76.21972222222223
Hathed at Misrod,NBO-2-024-1225,22.642777777777777,77.56361111111111
Choral at Barwah,NBO-1-049-1250,22.246111111111112,76.05166666666666
DRF,005-MBDGHY,26.799722222222226,91.69972222222222
Datuni at Dudwas,NBO-2-041-1242,22.47222222222222,76.78722222222223
Melkalpoondi,035-HDCHENNAI,11.435277777777777,78.9388888888889
Betalghat,043-mgd2lkn,29.55388888888889,79.3436111111111
Bhinga,024-MGD1LKN,27.68638888888889,81.82555555555555
Mirdapalli,024-wgdngp,19.383333333333333,80.55
Maharo,017-DDASL	,24.32361111111111,87.20222222222222
KHARIDWAR,035=DDASL,23.000694444444445,86.63944444444445
Kheronighat,032-UBDDIB,25.84861111111111,92.885
ARNOTA,GYQ00N7,26.9625,78.3625
Gumrabazar,01-11-13-001,24.97694444444444,92.51833333333333
Warunji,002-UKDPUNE,17.272777777777776,74.16472222222222
Hetimpur,016-MGD1LKN,26.736833333333333,83.83302777777777
Jamner at Sandalpur,NBO-1-040-1241,22.580277777777777,76.97277777777778
Kinjer,020-mgd5ptn,25.218055555555555,84.82555555555555
Kheri,037-UYDDEL,30.779999999999998,77.29777777777778
Palmerganj,019-mgd5ptn,24.858452777777778,84.31209166666666
Purola,027-UYDDEL,30.798055555555557,78.115
THEVUR,007-SRDCBE,11.527222222222223,77.75083333333333
Garhwa,031-MGD5PTN,24.21361111111111,83.87833333333333
Vijayawada,025-LKDHYD,16.50111111111111,80.625
Suklai,007-MBDGHY,26.65361111111111,91.71527777777779
CORONATION,015-LBDJPG,26.901944444444442,88.47222222222223
Belonia,013-MDSIL,23.25888888888889,91.46611111111112
Dameracherla,019-LKDHYD,16.739166666666666,79.66972222222223
Mortakka,018-ndbhp,22.226388888888888,76.04722222222222
Silgi at Kotrai,nbo-2-006-1207,22.985277777777778,80.5961111111111
Meenus (Khad),031-UYDDEL,30.761388888888888,77.705
NEAIRGRAM,028- MDSIL,24.76222222222222,92.83694444444444
Meenus(Tons),032-UYDDEL,30.761388888888888,77.70527777777778
AIE NH XING,033-LBDJPG,26.497777777777777,90.655
Kumhari,002-wgdngp,21.884444444444444,80.17527777777778
Gelabil,025-UBDDIB,26.244400000000002,93.97283333333334
Terwad (Seasonal),006-UKDPUNE,16.67638888888889,74.57416666666666
Ganguwala,035-UYDDEL,30.436944444444446,77.5786111111111
SIBAPUR,026- MDSIL,24.784444444444446,92.90722222222223
BALASAMUDRAM,053-SRDCBE,10.354166666666666,77.56083333333333
Daltonganj,024-mgd5pat,24.033055555555556,84.06361111111111
Deb at Khajuri,NBO-1-055-1256,21.97083333333333,75.25805555555556
NARHAN,022-MGD3VNS,25.209166666666665,83.32666666666667
SATNA,020-MGD3VNS,24.54888888888889,80.90666666666667
Sabhawala,029-UYDDEL,30.38111111111111,77.79666666666667
KALAIN,027- MDSIL,24.973055555555554,92.55638888888889
PRATAPPUR,019-LYDAGRA,25.299444444444447,81.56555555555555
SARANGKHEDA,020-TDSURAT,21.428333333333335,74.52722222222222
Gudari,034-ERDBWN,19.383333333333333,83.79222222222222
GARHAKOTA,GYH70J7,23.784722222222225,79.14361111111111
MURTI,032-LBDJPG,26.840555555555554,88.82777777777777
Miao,008-ubddib,27.49361111111111,96.21916666666667
Talcher,022-ERDBWN,20.91888888888889,85.23555555555555
Margherita,011-UBDDIB,27.283611111111114,95.66277777777778
Dillighat,014-UBDDIB,27.14,95.36999999999999
Nagrakata,026-LBDJPG,26.870555555555555,88.89555555555556
Kuldah Bridge,012-MGD3VNS,24.410833333333333,81.70416666666667
Saulighat,019-mgd4ptn,26.418055555555558,85.85305555555556
Abna at Khandwa,NBO-1-044-1245,21.81527777777778,76.33388888888888
Gangnani,027-HGDDDN,30.896666666666665,78.67750000000001
Sarangpal ,055-MDBURLA,20.31277777777778,81.53222222222222
Haidergarh,025-mgd2lkn,26.65583333333333,81.34972222222221
PULAMANTHOLE,007-SWRDKOCHI,10.898055555555555,76.19194444444445
Ramsanehi Ghat,027-mgd2lkn,26.794444444444448,81.55972222222222
Chachar,049-MGD3VNS,23.99527777777778,82.53388888888888
Devkali,048-MGD3VNS,25.54416666666667,83.32666666666667
Varanavasi,050-SRDCBE,11.092500000000001,79.085
NELLITHURAI,010- SRDCBE,11.287777777777778,76.89111111111112
Bhikiasen,021-MGD2LKN,29.696944444444444,79.2611111111111
Purihansha,033-DDASL,23.073888888888888,86.36277777777777
Dosni,023-HGDDDN,29.779722222222222,77.96194444444444
Pali,012-CDJAPR,25.854444444444447,76.56916666666666
Mandawara,011-CDJAPR,25.379444444444445,76.14527777777778
 Bhamgarh,NBO-0-045-1246,21.843333333333334,76.50444444444445
Rampur_GSM,022-MGD2LKN,28.78666666666667,78.98611111111111
Lalgarh,031-DDAsl,22.583333333333332,87.04388888888889
D P Ghat,034-DDasal,22.629722222222224,86.97472222222223
Bhainsa(State Govt. Site),022-ugdhyd,19.098888888888887,77.96055555555556
Roorkee,026-HGDDDN,29.88,77.89750000000001
BARIOL,020-LGD3BEH,25.895833333333332,88.09805555555555
Noida,046-UYDDEL,28.602222222222224,77.42416666666666
KATWA,015-lgd3BEH,24.43611111111111,88.14777777777779
Wadakbal,012-UKDPUNE,17.534166666666668,75.88472222222222
Yadgir,008-LKDHYD,16.7375,77.12527777777777
Devprayag (B),010-HGDDDN,30.151944444444442,78.59944444444444
Gomukhi dam,030,11.799999999907637,78.81666666710932
Chargharia,027-mgd4ptn,26.160555555555554,87.70527777777778
SEONDHA,015-lydagra,26.171944444444446,78.80416666666666
JUHIKHA,043-LYDAGRA,26.42638888888889,79.24583333333334
Tikarpara,034-MDBURLA,20.599444444444444,84.78166666666667
A.P.PURAM,020-SRDCBE,8.901388888888889,77.64861111111112
MOOSA NAGAR,041-LYDAGRA,26.151666666666664,79.95138888888889
KURDHANA,057-LYDAGRA,25.289722222222224,80.30944444444444
Shardanagar,007-MGD1LKN,28.063333333333333,80.96472222222222
Chaugurji Ghat,037-MGD1LKN,28.393055555555556,81.0075
PATTUKOTTAI,051-SRDCBE,10.416944444444443,79.29166666666667
Gagan Moradabad,020-MGD2LKN,28.82138888888889,78.71944444444445
KUMARGHAT,001-MDSIL,24.17527777777778,92.02361111111111
HOGENAKKAL,023-CDBNG,12.121111111111112,77.78194444444445
Baleni,045-UYDDEL:,28.95888888888889,77.47
GHAT,029-MGD1LKN,29.498611111111114,80.12583333333333
Gaighat,002-MGD1LKN,27.988055555555558,81.43333333333334
Kuthnaur,026-UYDDEL,30.874166666666667,78.30333333333333
Ganod,034MAHGAND,21.666666666666668,70.185
Lowara,039MAHGAND,21.445833333333333,71.56527777777778
Jamsholaghat,010-ERDBWN,22.21972222222222,86.71666666666667
Thiruvalngadu,042-HDCHENNAI,13.055277777777778,79.68083333333334
Mangrul,026-WGDNGP,20.18888888888889,77.98666666666666
Goverdheghat,023-MGD3VNS,23.769166666666667,81.20527777777778
Shahzadpur,015- MGD3VNS,25.664938888888887,81.41861944444445
Duddhi,025-MGD3VNS,24.224166666666665,83.26972222222223
Rajegaon,004-wgdngp,21.62388888888889,80.25333333333333
THENI,016-SRDCBE,10.001111111111111,77.485
MARKA,060-LYDAGRA,25.678055555555556,80.85749999999999
Parsa (Zalim Nagar),040-MGD1LKN,27.989166666666666,81.21416666666667
BASODA,007-LYDAGRA,23.884166666666665,77.91916666666667
Tuini (Pabar),003-UYDDEL,30.954722222222223,77.85305555555556
BAHALPUR,034-LBDJPG,26.31833333333333,90.46888888888888
THOPPUR,04-srdcbe,11.938333333333334,78.05722222222222
Chindnar,011-LGDHYD,19.083055555555557,81.3
Sorada,028ERDBWN,19.755555555555556,84.44305555555556
Bokajan,023-UBDDIB,26.019444444444442,93.78972222222222
Motipur,008-MGD1LKN,28.348333333333333,80.92083333333333
Swampatna,013-ERDBWN,21.616666666666667,85.91666666666667
LAMYARI,061-LYDAGRA,25.48222222222222,80.99583333333334
POWARI (Shifted to moorang),002-SHDSIM,31.533055555555556,78.28305555555555
"Myndu Stage II, Dam Site",001neid1,25.22027777817503,92.22583333298152
Myntdu Stage-II power house,002neid1,25.156666666315516,92.21749999991997
Bailley Bridge Tuipui,003neid1,23.226666666598838,93.09777777809086
Kashithal,004neid1,24.542500000225463,92.95333333334062
Kulichera,005neid1,24.49083333343883,92.80444444403835
Baghpat,013-UYDDEL,28.987997222222223,77.20274444444445
Annavasal,022-HYDCHENNAI,10.975,79.7538888888889
Lakheri,032-CDJAPR,25.61888888888889,76.19444444444444
PARAMAKUDI,018-SRDCBE,9.553333333333335,78.58638888888889
MEHNDAGHAT,044-LYDAGRA,26.42138888888889,78.91305555555556
Aglarpul,028-UYDDEL,30.514444444444443,77.99972222222222
New Motipur,038-MGD1LKN,28.264166666666668,81.04833333333333
Bihubar,017-UBDDIB,26.853333333333335,94.80055555555555
NARSINGHGARH,056-LYDAGRA,25.289166666666667,80.30472222222222
Azmabad,029-mgd5ptn,25.341388888888886,87.26583333333333
Pratapgarh,016-MGD3VNS,25.934166666666666,82.00194444444445
Raysi,024-HGDDDN,29.695,78.05944444444444
MURAPPANADU,021-SRDCBE,8.714444444444444,77.835
KALLOOPPARA,017-SWRDKOCHI,9.403611111111111,76.65027777777779
Karkota,050-MGD3VNS,23.94611111111111,82.67083333333333
PATTAZHY,019-SWRDKOCHI,9.072777777777777,76.7611111111111
Kunturla (Machkund),042-LGDHYD,18.199166666666667,82.64972222222222
IRRUKKANKUDI,019-SRDCBE,9.324166666666667,77.99055555555556
SEVANUR,006-SRDCBE,11.551944444444445,77.73194444444445
AMBARAMPALAYAM,015-SRDCBE,10.631388888888889,76.94611111111111
BARETHA,035-LYDAGRA,26.974166666666665,80.92111111111112
Aklera,017-CDJAPR,24.42888888888889,76.60305555555556
SINGASADANAPALLI,0041-cdbng,12.870000000000001,77.83611111111111
DEVRA,055-LYDAGRA,24.573055555555555,79.64305555555556
BIJRONI,049-LYDAGRA,24.995833333333334,77.60111111111111
BULAKIPURA,039-LYDAGRA,26.678333333333335,79.32833333333333
UDI,004-LYDAGRA,26.697222222222223,78.9375
UNNAO BALAJI,047-LYDAGRA,25.5625,78.59277777777777
Bewar,019-MGD2LKN,27.23611111111111,79.32916666666667
GOPALKHEDA,011-TDSURAT,20.874166666666667,76.99138888888889
Balaghat,003-wgdngp,21.80527777777778,80.15833333333335
Pandu,025-MBDGHY,26.170555555555556,91.66944444444445
KHOWAI,004-mdsil,24.0625,91.59833333333333
NUTANBAZAR GD SITE,003-MDSIL,24.41861111111111,92.17055555555557
KAITHI,054-LYDAGRA,25.746944444444445,80.30444444444444
Jouljibi,028-MGD1LKN,29.760277777777777,80.36916666666666
Borad at Thikri,NBO-1-053-1254,22.075,75.405
Matiyari at Katangatola,NBO-2-010-1210,22.535833333333336,80.39527777777778
Derol Bridge,019MAHGAND,23.576666666666668,72.80638888888889
Kheroj,016-MAHGAND,24.231111111111108,73.00833333333334
Sihthangpui,003-neid2,22.42361111111111,92.94277777777778
Majitar,011-LBDJPG,27.107222222222223,88.32222222222222
Lemeking,004-UBDDIB,28.372777777777777,93.55972222222222
Kharra,011-MGD3VNS,23.501944444444444,82.84027777777777
Madhabarida,030-ERDBWN,19.853055555555557,84.62638888888888
Regauli,022-MGD1LKN,27.01616111111111,83.21232222222223
Chopan,013-mgd3vns,24.529722222222222,83.02305555555556
MASOODPUR,050-LYDAGRA,25.831666666666667,78.245
Harnav Weir,017-MAHGAND,24.030833333333334,73.17222222222223
Badlapur,014-ukdpune,19.16222222222222,73.25416666666666
SARDHUA,062-LYDAGRA,25.431944444444447,81.05888888888889
Kanti,032-MGD4PTN,26.27361111111111,85.30027777777778
Thengudi,025-HYDCHENNAI,10.916111111111112,79.63916666666667
Tezu,006-UBDDIB,27.910833333333333,96.17055555555557
Gumadighat,042-MGD1LKN,27.273055555555555,82.25833333333334
Mohna,016-UYDDEL,28.223611111111108,77.45583333333333
Bhomoraguri,035,26.595555555555553,92.86083333333333
Matunga,003-MBDGHY,26.791111111111114,91.54444444444444
Mankatha,018-MGD5PTN,25.21333333333333,86.07055555555556
Wadenepally,018-LKDHYD,16.79416666666667,80.07305555555556
Kadirganj,015-mgd5ptn,25.91247222222222,85.59444444444443
AKHNOOR,017-chejmu,32.90083333333333,74.75888888888889
Marora ,013-HGDDDN,29.93722222222222,78.7025
Koteshwar,009-HGDDDN,30.262777777777778,78.50055555555555
SEVOKE,016-LBDJPG,26.88,88.47277777777778
CHEL,017-LBDJPG,26.8625,88.63611111111112
Hathiari (Bausan),002-uyddel,30.51361111111111,77.92833333333334
Peralam,023-HYDCHENNAI,10.969444444444445,79.6613888888889
Nagarjuna Sagar Dam,017-lkdhyd,16.5,79.25
KAIMAHA,022-LYDAGRA,25.075,79.82777777777777
TITANG,001-SHDSIM,31.766944444444444,78.6363888888889
Ambasamudram,017-SRDCBE,9.925555555555555,77.51166666666667
Gaur at Bhalawara,NBO-1-012-1213,23.10888888888889,79.97166666666666
Mancherial,025-UGDHYD,18.85027777777778,79.44444444444444
KARWI,059-LYDAGRA,25.22111111111111,80.9113888888889
Narora Down Stream,023-mgd2lkn,28.191111111111113,78.4
Amraghat,017-MBDghy,24.605833333333333,92.9538888888889
Gharmura,012-MBDGHY,24.28527777777778,92.51611111111112
BAGCHINI,045-LYDAGRA,26.485555555555557,77.81527777777778
ERINJIPUZHA,001-SWRDKOCHI,12.495833333333332,75.15694444444445
MANKARA,010-SWRDKOCHI,10.761111111111111,76.48611111111111
Yinkiang,003-UBDDIB,28.64361111111111,95.01694444444445
Ropa,IBO-2-062-0548,31.799722222222226,78.415
BANTWAL,027-cdbng,12.880833333333333,75.0411111111111
SILVASSA,030-TDSURAT,20.268055555555556,72.98555555555555
YENNEHOLE,030CDBNG,13.294166666666667,74.98083333333334
Machna at Shahpur,NBO-1-033-1234,22.19527777777778,77.89833333333334
Baranwada,010-CDJAPR,26.010277777777777,76.66166666666668
GAJARIA,006-MDSIL,23.649444444444445,91.23083333333334
Bhakudar (Sipu Dam),033-MAHGAND ,24.400277777777777,72.30944444444444
Mangaon,021-ukdpune,18.231388888888887,73.28361111111111
A.B.Road X-ing,019-CDJAPR,24.34583333333333,77.1125
PAILANI DERA,058-LYDAGRA,25.77638888888889,80.42166666666667
Bigod,008-CDJAPR,25.250555555555554,75.03416666666666
Alladupalli,008-HYDCHENNAI,14.717222222222222,78.66861111111112
Sonauli Mohammad Pur,043-MGD1LKN,26.883888888888887,81.80013888888888
LAKSHMANANPATTI,046-SRDCBE,10.498055555555554,77.94583333333334
Chengalpet,016-hYDCHENNAI,12.65,79.94722222222222
Kamalapuram,010-HYDCHENNAI,14.580555555555556,78.67777777777778
Jotasan,023MAHGAND,24.35611111111111,73.16555555555556
Ramakona,007-WGDNGP,21.718888888888888,78.82416666666666
Nandalur,028-HYDCHENNAI,14.254722222222222,79.11638888888888
BOMJIR,076-UBDDIB,28.157777777777778,95.66833333333334
KUDLUR,003-SRDCBE,11.840555555555556,77.46277777777777
Gharighat,045-MGD1LKN,27.00861111111111,82.49555555555555
Thoothibari,049-MGD1LKN,27.415405555555555,83.69283888888889
Dimapara,01-10-01-001,25.231944444444444,90.24305555555556
VADAMADURAI,048-SRDCBE,10.461388888613758,78.05333333331883
SANARPATTI,047-SRDCBE,10.285555555759842,78.09611111067811
Bawapuram,014-lkdhyd,15.8825,77.95722222222223
Chakrar at Gadasarai,NBO-2-002-1203,22.82638888888889,81.32444444444444
Annamayya Project,006-hydchennai,14.21361111111111,79.0175
Tuichawng,002-neid2,22.926111111111112,92.52111111111111
Devprayag (G),011-HGDDDN,30.140555555555554,78.59694444444445
ROING,42-ubddib,28.15833333333333,95.845
Sangam (Murredu),019-lgdhyd,17.59361111111111,80.82166666666666
Paleru Bridge,023-LKDHYD,16.948888888888888,80.04916666666666
Galeta,019-UYDDEL,29.0825,77.43722222222223
EBRANLI,075-UBDDIB,28.374166666666667,95.93166666666667
Saharghat,036-MGD4ptn,26.543055555555558,85.85583333333332
Menangudi,024-HYDCHENNAI,10.94888888888889,79.70361111111112
Nallathur,021-HYDCHENNAI,11.002222222222223,79.75138888888888
Daporizo,020-UBDDIB,27.993305555555555,94.22339444444445
Neemsar,005-mgd2lkn,27.355,80.48083333333334
PANDOA,005-SHDSIM,31.26638888888889,77.29972222222221
Kalanaur,010-UYDDEL,30.067833333333333,77.35402222222221
Dawki,001-MIDSHL,25.189722222222223,92.01861111111111
Narmada at Naseerabad,NBO-2-025-1226,22.830277777777777,77.97
Parsohan Ghat,047-MGD1LKN,27.39527777777778,82.5625
Keolari,001-wgdngp,22.38138888888889,79.89972222222222
Avarankuppam,001-SRDCBE,12.684166666666666,78.53944444444444
ELUNUTHIMANGALAM,012-SRDCBE,11.031666666666668,77.8875
Polampalli,020-LKDHYD,17.015556,80.171667
Basti,026-MGD1LKN,26.784444444444446,82.7125
Kanhargaon,025-WGDNGP,19.961666666666666,77.14833333333334
Tuichang,001-neid2,23.034444444444446,92.96527777777779
Zari,013-UGDHYD,19.39472222222222,76.77333333333333
HALADI,028CDBNG,13.581666666666667,74.85777777777777
Dhalegaon,010-ugdhyd,19.199722222222224,76.36638888888888
Satrapur,008-WGDNGP,21.21638888888889,79.23305555555555
Koida,025-lgdhyd,17.482499999999998,81.38666666666667
Purna,014-ugdhyd,19.183333333333334,77.03305555555555
Saigaon,017-ugdhyd,18.05,77.04972222222221
Degloor,020-ugdhyd,18.545555555555556,77.5775
Dholai,016-MBDGHY,24.59361111111111,92.84527777777777
SANTEGULI,029CDBNG,14.434444444444445,74.58888888888889
Chhinda,CW1WE000074,22.185277777777777,78.9775
NALLAMARANPATTY,014-srdcbe,10.880833333333333,77.98472222222222
PUDUNAGARA,0047-CDBNG,12.069444444444445,77.40944444444445
Kalimachak at Charuwa,NBO-1-043-1244,22.073888888888888,76.91472222222222
Machak at Barangi,NBO-1-042-1243,22.220555555555553,76.94388888888889
Konta,022-lgdhyd,17.79888888888889,81.39277777777778
Mudhol,031-ukdpune,16.323333333333334,75.28111111111112
KOLLEGAL,022-CDBNG,12.189444444444444,77.10194444444444
Singavaram,009-hydchennai,14.597777777777779,78.01333333333334
Jalalpur,01-10-24-001,25.0025,92.45666666666666
Jiribam,01-10-29-001,24.803333333333335,93.11055555555555
ORAI-2 Mangrayan,040-LYDAGRA,26.047222222222224,79.39611111111111
Muhchurwa Ghat,048-MGD1LKN,27.408055555555553,82.77527777777777
Chotabekra,013-MBDGHY,24.68027777777778,93.10249999999999
SARVA,051-LYDAGRA,26.40222222222222,78.31916666666666
Kokangaon,018-ukdpune,17.28638888888889,75.63722222222223
Raska WeIr,015-MAHGAND,22.904444444444444,72.74138888888889
Dhobahat,044-MGD1LKN,26.60777777777778,82.63694444444445
Fulertal,01-11-01-008,24.790277777777778,93.00777777777778
Chhinda,CW1WEI000074,22.185277777777777,78.9775
Gola Bazaar,046-MGD1LKN,26.335555555555555,83.35749999999999
Sei Dam ,022-MAHGAND ,24.715833333333332,73.19972222222222
Sarati,028-ukdpune,17.911944444444444,75.0075
Bishunpur,034-mgd4PTN,26.0325,85.81472222222222
Bop,DWRIS-08,27.611666666666668,88.65833333333335
Bhatpurwaghat,006-mgd2lkn,27.191111111111113,80.8
Shirdhon,019-ukdpune,17.36861111111111,75.59416666666667
Umar at Imaliya,NBO-2-021-1222,22.998055555555556,79.42972222222222
Narmada at Gorakhpur,NBO-2-001-1202,22.77,81.45444444444445
Joshimath,002-HGDDDN,30.566944444444445,79.55305555555556
Naidupet,012-HYDCHENNAI,13.947222222222223,79.89722222222223
Lasur,008-ugdhyd,19.9375,74.025
Mataji,004-MAHGAND,23.349722222222223,74.71833333333333
Anas PH-II,002-MAHGAND,23.35388888888889,74.23388888888888
Ratanpur,024MAHGAND,22.97722222222222,72.88444444444445
Kharkhana,002-midshl,25.158055555555553,92.21083333333334
Champasari,031-LBDJPG,26.739166666666666,88.42222222222223
Magaral,015-HYDCHENNAI,12.708333333333332,79.75
Sagbari,DWRIS-17,27.255,88.30499999999999
Vazhavachanur,017-HYDCHENNAI,12.065833333333334,78.97805555555556
P.G. Bridge,016-WGDNGP,19.820833333333333,78.56083333333333
Villupuram,019-HYDCHENNAI,11.870555555555557,79.45944444444444
Sankosh LRP,007-LBDJPG,26.45777777777778,89.85805555555555
Bhalukpong,029-UBDDIB,27.0175,92.6375
Uskabazar,013-MGD1LKN,27.18888888888889,83.12555555555555
Triveni,008-MGD4PTN,27.438055555555557,83.90555555555557
Hivra,011-WGDNGP,20.547222222222224,78.325
Baripada,004-ERDBWN,21.93111111111111,86.71861111111112
Mathura (Gokul Barrage),018-UYDDEL,27.4425,77.71361111111112
Buggaagraharam,041-HDCHENNAI,13.336388888888889,79.59805555555555
Sullurpet,013-HYDCHENNAI,13.707777777777777,80.01
Kumarapalayam,018-HYDCHENNAI,11.983055555555556,79.68055555555556
Pachegaon,007-ugdhyd,19.53527777777778,74.83361111111111
Kudalaiyathur,020-HYDCHENNAI,11.422222222222222,79.47222222222223
THIRUNAVALUR,053 -hd chennAI,11.748333333333333,79.40527777777778
MANIYAMPATTU,054- HD CHENNAI,12.22638888888889,79.51472222222222
Bhatpalli,022-wgdngp,19.329722222222223,79.50416666666666
Haripur,002-DDASL	,24.31138888888889,87.08694444444444
Tuting,002-ubddib,28.995,94.88694444444445
Sakmur,018-WGDNGP,19.559166666666666,79.61166666666666
Lachen,DWRIS-02,27.71944444444444,88.56138888888889
Bakcha ,DWRIS-14,27.41777777777778,88.63027777777778
Laven ,DWRIS-15,27.551111111111112,88.46111111111111
Sankalang,008-SIDGTK,27.51722222222222,88.53222222222222
Toyum,005-SIDGTK,27.27027777777778,88.2388888888889
SANOOR,042CDBNG,13.180833333333332,74.99444444444444
Nandgaon,012-wgdngp,20.525555555555556,78.80888888888889
AVERSHE,026CDBNG,13.52138888888889,74.88
ARANGALI,011-SWRDKOCHI,10.286111111111111,76.32222222222222
MONNAVEDU,052- hd chennai,13.223611111111111,79.94527777777778
KALAMPUR,013-SWRDKOCHI,9.990555555555554,76.63222222222221
Dindori,008-NDBHP,22.947777777777777,81.0761111111111
Dholai,01-11-06-003,24.59361111111111,92.84527777777777
Tawa at Tawakathi,NBO-1-034-1235,22.200555555555553,77.95583333333333
Penneswaramadam,038-HDCHENNAI,12.395555555555555,78.24583333333334
Nandipalli,003-hydchennai,14.721111111111112,79.01888888888888
China Bridge,001NEID3,27.614444444444445,92.00972222222222
Tadipatri,007-HYDCHENNAI,14.921944444444444,78.01638888888888
Balai at Narayanganj,NBO-2-010-1211,22.604722222222225,80.36222222222221
VANDIPERIYAR,016-SWRDKOCHI,9.573333333333332,77.09055555555555
Gawana,CW1WEI000076,21.324480555555557,79.18080555555557
BENDRAHALLI,CCN00J5,12.12888888888889,77.08305555555555
Ramgarh,007-DDASL	,23.641666666666666,85.5111111111111
Watrak Dam,014-MAHGAND,23.31833333333333,73.40611111111112
Hathmati Weir,013-MAHGAND,23.6075,72.9675
Takli,011-ukdpune,17.414166666666667,75.84777777777778
KURUNDWAD,005-UKDPUNE,16.684444444444445,74.60222222222221
Dharna Dam (State Govt. Site),001-ugdhyd,19.761944444444445,73.73722222222223
Kibithu,001-UBDDIB,28.25722222222222,97.02583333333334
SITAMARHI,004-mgd3vns,25.27722222222222,82.28722222222223
Saner at Chargawan,NBO-2-014-1215,23.505555555555556,79.59861111111111
Machrar at Gidha,NBO-1-003-1204,22.90861111111111,81.19388888888889
Phen at Parsatola,NBO-2-008-1209,22.528888888888886,80.99166666666667
Salempur,017-MGD1LKN,26.292055555555557,83.93636111111111
T. Ramapuram,012-LKDHYD,15.661111111111111,76.96555555555555
Chennur,001-HYDCHENNAI,14.572222222222223,78.8
Desangpani,015-UBDDIB,27.046666666666667,94.91222222222223
Colonelganj,001-MGD1LKN,27.125,81.66333333333334
V.Kallathur,036-HDCHENNAI,11.4025,78.92972222222222
Arcot,014-HYDCHENNAI,12.91388888888889,79.33305555555555
Mukki,001-NDBHP,22.149444444444445,80.66555555555556
Maniram,020-MGD1LKN,26.852777777777778,83.3261111111111
Tuini (Tons),004-UYDDEL,30.939722222222223,77.84666666666666
Bhejdih,068-ERDBWN,21.476388888888888,86.2863888888889
Kolipal,073-ERDBWN,21.43888888888889,85.18777777777778
Kanke Rd. Bridge,075-ERDBWN,23.45,85.31388888888888
Jammu Tawi(Sidhra),015-chejmu,32.76277777777778,74.88444444444445
Jaggaguda,048-ERDBWN,19.11138888888889,83.42416666666666
Tumnar (Dantewara),012-lgdhyd,19.01222222222222,81.2325
Paradih,076-ERDBWN,23.11388888888889,85.615
Saraikela Rd. Bridge,077-ERDBWN,22.69361111111111,85.9786111111111
Bara Ghagara,074-ERDBWN,23.330555555555556,85.35888888888888
Dhurwa Dam,078-ERDBWN,23.290000000000003,85.25277777777778
DUDHAWA,065-MDBURLA,20.323055555120145,81.6816666667335
Sangam (Kinnerasani),018-LGDHYD,17.599722222222223,80.81638888888888
Pariyat at Matamar,NBO-1-015-1216,23.235833333333336,80.03999999999999
Dadri,021-UYDDEL,28.504722222222224,76.79027777777777
Palkhed,004-ugdhyd,20.16611111111111,73.89944444444446
Kanjyoti,030-MGD1LKN,30.02611111111111,80.57777777777777
CHAPRA,009-GD3BEH,23.504166666666666,88.55138888888888
Gagrigol,032-MGD1LKN,29.90361111111111,79.63472222222222
Saradaput,023-LGDHYD,18.6125,82.14277777777778
Sukma,020-LGDHYD,18.384444444444444,81.66250000000001
Perur,014-lgdhyd,18.53666666666667,80.37666666666667
KALLIDAIKURICHHI,030-SRDCBE,8.693333333333333,77.46583333333334
Bhitaura,018-MGD2LKN,26.041944444444447,80.85944444444443
ADKASTHALA,041cdbng,12.674999999999999,75.115
KIDANGOOR,015-SWRDKOCHI,9.674999999999999,76.60277777777777
Khanabal,001-chejmu,33.74861111111111,75.12166666666666
ASHRAMAM,023-SWRDKOCHI,8.158333333333333,77.46000000000001
Sangod,021-CDJAPR,24.961111111111112,76.29805555555555
Azamgarh,001-MGD3VNS,26.05,83.18333333333334
KRALPORA,CD-NEW-23,33.99722222222222,74.81361111111111
FATEHPORA,CD-NEW-36,34.197222222222216,74.76888888888888
BAINCH,CD-NEW-30,33.75833333333333,74.09555555555555
Pathagudem,013-lgdhyd,18.81638888888889,80.35
OZERKHEDA,027-TDSURAT,20.10027777777778,73.27111111111111
GAISABAD,012-lydagra,24.3,79.85
Karad,001-UKDPUNE,17.29361111111111,74.19
CHANDPUR DABRA,046-LYDAGRA,25.835833333333333,78.37194444444444
Kheda,025MAHGAND,22.74638888888889,72.68027777777779
Madhwapur,041-MGD1LKN,27.793055555555558,81.785
NEPARI,037-LYDAGRA,26.209722222222222,77.90222222222222
Nandkeshri,003-HGDDDN,30.039444444444445,79.55611111111111
Magardharra,CW3WEI000034,21.95583333333333,80.10916666666667
BHALUKA,021-LGD3BEH,25.315555555555555,87.82777777777777
Bateshwar,033,16.829166667001573,81.75472222257275
HANSKHALI,011-LGD3BEH,23.35777777777778,88.6086111111111
BURHANPUR,015-TDSURAT,21.298333333333336,76.23611111111111
Belkund at Ghughra,NBO-2-018-1219,23.489166666666666,80.19777777777779
Khanpur,009-MAHGAND,22.53388888888889,73.13972222222223
Chakaliya,001-MAHGAND,23.051944444444445,74.31972222222223
MANSURPUR,038-LYDAGRA,25.945555555555554,80.53138888888888
BADAUSA,66-LYDAGRA,25.239722222222223,80.66083333333334
SANJAY NAGAR,048-LYDAGRA,25.045555555555556,79.18194444444445
BAHIRGACHI,019-LGD3BEH,25.184722222222224,88.08277777777778
BARCHA,064-LYDAGRA,25.139444444444443,80.47833333333334
Bageshwar,034-MGD1LKN,29.828055555555554,79.7713888888889
SARALPUR,023-LGD3BEH,24.991666666666667,87.79888888888888
JIAGANG,028-LGD3BEH,24.234722222222224,88.26361111111112
Narmada at Maalpur,NBO-2-005-1206,23.05638888888889,80.83722222222222
Tal,002-CDJAPR,23.718055555555555,75.35388888888889
Barod,015-CDJAPR,25.215555555555554,76.24694444444445
Ujjain,004-CDJPR,23.1725,75.75694444444444
SONMARG,CD-NEW-26,34.30305555555555,75.26277777777777
RUMSHI,CD-NEW-21,33.95055555555556,74.92972222222222
ARWANI,CD-NEW-22,33.79416666666666,75.0675
WATCHI,CD-NEW-20,33.80277777777778,75.0363888888889
Baramulla,CD-NEW-27,34.208333333333336,74.33638888888889
GATA,052-LYDAGRA,26.388333333333332,78.62305555555555
Bhingarpur ,049-MDBURLA,20.26638888888889,85.9375
Mechuka,0013NEID3,28.60063611111111,94.14650555555556
TANTLOI,021-DDASL,24.044722222222223,87.27111111111111
Karoti,010202008,24.593888888888888,72.5625
Waraseoni,CW3GDL300814,21.75027777777778,80.0363888888889
Doimukh,058-UBDDIB,27.138333333333332,93.75194444444445
LAHCHURAGHAT,063-LYDAGRA,25.333888888888886,79.27916666666667
Niivali,023-ukdpune,17.066944444444445,73.45083333333334
Pangin,003NEID-3,28.233680555555555,95.00264166666666
Baladoba,046-LBDJPG,26.01888888888889,89.82944444444443
Borkhola,016-MDSIL,24.924166666666668,92.75333333333333
Jogisakhra,CW1WEI00037,20.49527777777778,80.02111111111111
CHIRIPOOL,024- MDSIL,24.80388888888889,93.02055555555556
UDHARBOND,025 - MDSIL,24.90138888888889,92.9075
Katigorah,015-MDSIL,24.815833333333334,92.64972222222222
Tenduni at Maheshwar,NBO-1-028-1229,22.979166666666664,78.32083333333333
RAJAPUR,018-LYDAGRA,25.387777777777778,81.15444444444445
Feni G & D Site,029-MDSIL,22.978888888888886,91.68222222222222
JARAINA,036-LYDAGRA,26.43277777777778,77.90222222222222
Kuthnuor,026,30.874166666569185,78.30333333305802
Boleng,004neid3,28.308055555555555,94.96111111111111
KALATHUKADAVU,028-SWRDKOCHI,9.719722222222222,76.77833333333334
Bina,CW1WEI000067,21.269166666666667,79.16833333333334
B.K.Ghat,009-MGD1LKN,28.272777777777776,81.09083333333332
BAROOD,053-LYDAGRA,25.247500000000002,79.29916666666666
Suldaguri,042-LBDJPG,26.253611111111113,89.61583333333333
Shaladang,044-LBDJPG,26.301111111111112,89.58472222222221
Ambari,043-LBDJPG,26.41638888888889,89.54166666666667
Tharnam,CW1WAR000038,19.739444444444445,78.56444444444445
Kamgarpur,CW1WAR000043,19.779166666666665,78.78138888888888
Balasamudram,srdcbe 052,10.425555555555555,77.53388888888888
VALIGONDA,040-LKDHYD,17.365555555555556,79.03222222222222
Mahagaon (Pus),CW1WAR000039,19.796111111111113,77.77305555555556
Piplatola (Dutta),CW1WEI000045,21.689722222222223,80.33361111111111
Bogibil,055-UBDDIB,27.3925,94.77666666666667
Mahalgaon,CW1WEI180516,21.550555555555555,80.02666666666667
Lala,018-MDSIL,24.60777777777778,92.61361111111111
Bichhubaggu,CW1WEI000033,21.692777777777778,78.86333333333333
Kapsi,CW1WAR000049,20.43305555555556,78.5975
Patharkandi,019-MDSIL,24.578055555555554,92.31388888888888
Asegaon,CW1WAR000036,20.033611111111114,76.95833333333334
Rui,CW1WAR000040,19.54138888888889,77.57777777777777
Belgaon (Selu),CW1WAR000052,20.826666666666668,78.71777777777778
Kaliganj,021-MDSIL,24.783055555555556,92.41111111111111
Sonamura-II,022-MDSIL,23.485555555555557,91.36638888888888
Chitrasani,027-MAHGAND,24.28805555555556,72.49861111111112
Sabrum,023-MDSIL,22.99888888888889,91.72666666666667
Muhammedpur,017-MDSIL,24.515833333333333,92.61055555555555
Banbasa ,005-MGD1LkN,28.995833333333334,80.10555555555555
Halon at Baratola,NBO-2-007-1208,22.607222222222223,80.70444444444445
Denwa at Matkuli,NBO-2-035-1236,22.585555555555555,78.45916666666668
Indra at Khapriya,NBO-2-037-1238,22.745833333333334,78.15916666666668
Lakshmanpatti,73988598,10.498055555555554,77.94583333333334
METEOROLOGICAL STATION JANG,005NEID3,27.581944444444446,92.43083333333334
Brahmnihalua,070-ERDBWN,19.052500000000002,83.43527777777778
Seethanagaram,072-ERDBWN,18.66222222222222,83.37027777777777
Jollang ,007NEID3,27.116388888888892,93.63583333333334
KUTTYADI,004-SWRDKOCHI,11.650833333333333,75.75833333333334
NELLIPPALLI,039-SWRDKOCHI,9.027777777777779,76.92472222222223
Mouda,CW1WEI000058,21.140833333333333,79.38972222222223
Purad,CW1WAR000059,19.964444444444442,79.02666666666667
Mahidpur,005-cdjapr,23.479444444444443,75.63333333333334
VELLAIKADAVU,042-SWRDKOCHI,8.498055555555554,77.0125
THIRUVATTAR,041-SWRDKOCHI,8.327777777777778,77.26694444444445
PULIKUKKU,037 CDBNG,12.71111111111111,75.46916666666667
Savni,010214002,20.950277777777778,70.45694444444445
Pagoda,059-UBDDIB,27.773333333333333,95.97583333333334
RAJMAHAL,018-LGD3BEH,25.057222222222222,87.83555555555554
ARUVIPURAM,037-SWRDKOCHI,8.42,77.0925
THUMPAMON,020-SWRDKOCHI,9.227777777777778,76.7
MADAMON,038-SWRDKOCHI,9.363888888888889,76.83777777777777
Dihingmukh,057-UBDDIB,27.255277777777778,94.73916666666666
Palla,014-UYDDEL,28.845277777777778,77.21277777777777
DIANA,018-LBDJPG,26.86388888888889,89.00027777777778
Sankalan,012-LBDJPG,27.508333332958188,88.52499999957456
Jateon Barrage,007-UYDDEL,30.5876,77.46845555555555
Jahajpur,035-CDJAPR,25.63,75.22722222222222
Trimohinighat,021-MGD1LKN,27.11777777777778,83.42
Mukhlispur,015-MGD1LKN,26.603194444444444,83.02888888888889
Manughat,022-MBDGHY,23.996111111111112,91.98944444444444
NEORA,020-LBDJPG,26.879166666666666,88.77333333333333
Murga Bridge,002Neid3,27.61388888888889,92.02638888888889
Singimari,047-LBDJPG,26.11277777777778,89.35
Karam at Dahiwar,NBO-2-051-1227,22.227777777777778,75.51833333333333
RAYACHOTI,048-HDCHENNAI,14.066666666666666,78.75527777777778
Kathajori Rd.Bridge,048-MDBURLA,20.4375,85.88722222222223
Masani,020-UYDDEL,28.20138888888889,76.74388888888889
Kadamtala,020-MDSIL,24.503055555555555,92.2175
Sonkatch,025-CDJAPR,22.980555555555554,76.34305555555555
Maholi,060-mgd2lkn,27.662499999999998,80.45611111111111
Huvinhedigi,003-LKDHYD,16.490277777777777,76.92305555555556
Savandapur,7397907C,11.52138888888889,77.51
Nowrangpur,003-lgdhyd,19.1975,82.51194444444444
Dudhi at Panagar,NBO-1-026-1227,22.836944444444445,78.60277777777777
GUMMANUR,002-SRDCBE,12.555000000000001,78.13833333333334
Kosagumda (Bhaskel),004-lgdhyd,19.27722222222222,82.23305555555555
Mandsour,047-CDJAPR,24.06833333333333,75.08222222222221
Dhopaddhaar,033-HGDDDN,30.516944444444444,78.75611111111111
KHANITAR,013-LBDjPG,27.17777777777778,88.51333333333334
Chauhaan Patti,050-MGD1LKN,26.695555555555554,83.97944444444444
TULARGRAM,007-MDSIL,24.71611111111111,92.885
Chhinka,025-HGDDDN,30.41361111111111,79.36638888888888
Shukratal,058-HGDDDN,29.49277777777778,77.99
Sher at Kacchara,NBO-1-020-1221,22.823888888888888,79.4575
Machrewa at Bakori,NBO-2-022-1223,22.841944444444444,79.36166666666666
Kabir Ganj,035-MGD1LKN,28.50861111111111,80.38444444444445
Kukea,036-MGD1LKN,28.1125,80.83361111111111
Basantpur,027-MDBURLA,21.7275,82.78805555555556
Kelo at Raigarh,011-MDBURLA,21.88277777777778,83.40333333333334
Krishnagiri Dam,039,14.028611111111111,79.28527777777778
Srisailam Dam,SRLMDM,16.088888888655532,78.83333333379906
CHAMPAKULAM,CHAMPAKULAM,9.403611111111111,76.41305555555556
Bangapani (Munsyari),031-MGD1LKN,29.959444444444443,80.30444444444444
Surajgarh,028-MDBURLA,21.69361111111111,83.37583333333333
Hendegir,006-DDASL	,23.704722222222223,85.1725
PUNASI DAM,037-DDASL,23.51,85.67
Sathanur Dam,031,12.200000000392668,78.59166666686765
Rajghat,007RAJG,21.767777777525993,87.1641666661996
BHAVANI BRIDGE,044-SRDCBE,11.43833333370307,77.68083333322961
SRI RANGAM,045-SRDCBE,10.847222222165085,78.68888888929739
Polavaram site,026-lgdhyd,17.245833333333334,81.65972222222223
PALLIPALAYAM/Erode,043-SRDCBE,11.360555555521687,77.74611111126154
BURLA,064-MDBURLA,21.508333333333333,83.89083333333333
Lakhisarai,016-MGD5PTN,25.184722222222224,86.10194444444444
Sundergarh,008-MDBURLA,22.11527777777778,84.0111111111111
Kurubhata,026-MDBURLA,21.981388888888887,83.21055555555556
Saksohra,052-mgd5ptn,25.395511111111112,85.7044
Paliganj,055-mgd5ptn,25.320833333333333,84.72277777777778
Danapur,054-mgd5ptn,25.641111111111112,85.01305555555555
WJC MLL,HR00001,30.215833333333332,77.39444444444445
Kukraha,035-MGD4PTN,26.564444444444444,84.4388888888889
Kapasiya,052-MGD4PTN,26.41861111111111,86.0533611111111
PERUVAMPADAM,025-SWRDKOCHI,11.3153,76.19635000000001
Achencoil,ACHENCOIL,9.092377777777779,77.122
MALAPPUARAM CIVIL STATION,MALAPUARAM_CS,11.040833333333333,76.07805555555555
VIDYA NAGAR,VIDYANAGAR,12.514444444444445,75.01880555555556
Ariankavu,ARIANKAVU,8.975277777777778,77.14916666666667
KOCHUPAMPA,KOCHUPAMPA,9.387777777777778,77.15694444444445
Dharam jaigarh,013-MDBURLA,22.47722222222222,83.21416666666667
Moujabadi,047-MGD4PTN,26.144444444444446,87.9063888888889
Lakhoura,058-MGD4PTN,26.720277777777778,84.97222222222223
Madhuban,059-MGD4PTN,26.446944444444444,85.14111111111112
Mohauddin Nagar,042-MGD4PTN,25.59472222222222,85.68472222222222
Odendurai,038-SRDCBE,11.321666666666667,76.89277777777778
Gopalpur,045-MDBURLA,22.044722222222223,83.72916666666667
Jondhra,020-MDBURLA,21.716944444444444,82.33833333333332
Kalagarh ,007-mgd2lkn,29.495,78.76055555555556
Raipur,043-MDBURLA,21.261944444444445,81.60583333333332
Rampur,010-MDBURLA,21.647222222222222,82.51611111111112
Seorinarayan,025-MDBURLA,21.71833333333333,82.5975
Manendragarh,003-mdburla,23.20138888888889,82.21444444444445
Mahendragarh,031-ERDBWN,19.223333333333333,84.2625
Adityapur,006-ERDBWN,22.79138888888889,86.17361111111111
Birpur,022-mgd4ptn,26.52,86.93138888888889
ARKKANNUR,036-SWRDKOCHI,8.8725,76.84666666666666
Dobhi,063-mgd5ptn,24.530133333333332,84.9168138888889
Kalasapadu,046-HDCHENNAI,15.112499999999999,78.93805555555556
Nagalamedike,011-HYDCHENNAI,14.18888888888889,77.37222222222222
Jamui,058-mgd5ptn,24.96361111111111,86.23944444444444
Karnaprayag (P),017-HGDDDN,30.259166666666665,79.21777777777778
Rd.Bridge D/S of Chandil Dam,069-ERDBWN,22.97083333333333,86.02083333333333
Bamnidhi,006-mdburla,21.9,82.71333333333334
Thethetanger,007-MDBURLA,22.665277777777778,83.91055555555556
Dhariawad,003-MAHGAND,24.086388888888887,74.47555555555556
Sarotry ,029-MAHGAND ,24.36888888888889,72.54555555555555
Kamalpur ,032-MAHGAND ,23.813055555555557,71.75333333333333
Sadalga (Seasonal),007-ukdpune,16.56361111111111,74.5275
Sankara,009-MDBURLA,21.28888888888889,82.65138888888889
Korba,005-MDBURLA,22.393333333333334,82.70277777777778
Kolar at Mahgaon,NBO-2-038-1239,22.697222222222223,77.36638888888888
Manot,009-ndbhp,22.735833333333336,80.51305555555555
Barmanghat,012-NDBHP,23.030555555555555,79.01527777777778
Masaurhi,056-mgd5ptn,25.300780555555555,85.07335555555555
Suryagadha,051-mgd5ptn,25.2825,86.295
Gopiballavpur,062-erdbwn,22.21972222222222,86.90472222222223
Balimundali,001-ERDBWN,21.733888888888888,86.63333333333334
Kamakshya Nagar Rd. Bridge,052-ERDBWN,20.747222222222224,85.55555555555556
Bhuban Baji Rout Rd.Bridge,049-ERDBWN,20.861666666666668,85.85972222222222
Kurula,042-erdbwn,19.454166666666666,84.70472222222223
Kutragada,033-ERDBWN,19.614722222222223,83.55027777777778
Ashti,010-wgdngp,19.684722222222224,79.78861111111111
Gungan,037MAHGAND,22.961666666666666,70.76444444444445
Andhiyar Khore,016-MDBURLA,21.833888888888886,81.5975
Chandradeepghat,014-MGD1LKN,27.135555555555555,82.50055555555555
Uttarkashi,008-HGDDDN,30.72833333333333,78.44583333333334
Dhanora (Wardha),CW3WAR000060,19.904444444444444,79.18361111111112
Rangeli,012-MAHGAND,23.872222222222224,74.22416666666666
Paderdibadi,006-MAHGAND,23.75888888888889,74.13388888888889
Patansaongi,CW1WEI000053,21.320833333333333,79.02444444444444
Simga,019-MDBURLA,21.633055555555558,81.685
Ghatora,021-MDBURLA,22.048333333333336,82.22166666666666
Bairiya,067-mgd5ptn,24.07,84.06555555555555
Mahnar,035MGD5PAT,25.57097222222222,85.56636388888889
Mahua,GGQ00H8,25.812316666666668,85.39279166666667
Nardiganj,059-mgd5ptn,24.941211111111112,85.42776111111111
Sankhili Rd Bridge,045-ERDBWN,18.569444444444443,83.7375
Meliaputy,043-erdbwn,18.775277777777777,84.17055555555557
BYALADAHALLI,005-cdbng,14.43388888888889,75.77972222222222
Kotni,018-MDBURLA,21.23777777777778,81.25027777777778
Kolhachak,033-MGD5PTN,25.35125,85.09049999999999
Hisua,062-mgd5ptn,24.863611111111112,85.47833333333334
Mahgama,069-mgd5ptn,24.980277777777776,87.33027777777778
Zamania,068-mgd5ptn,25.301944444444445,83.52722222222222
Keshdihi,067-ERDBWN,21.540833333333335,86.20111111111112
Brahmkhaal,032-HGDDDN,30.695,78.29722222222222
Chintawanpur,060-MGD4PTN,26.561944444444446,85.05583333333333
Jhagarua,054-MGD4PTN,26.046666666666667,86.34305555555555
Dhamaraghat,044-MGD4PTN,25.61138888888889,86.60694444444444
Nirmali,055-MGD4PTN,26.30388888888889,86.5786111111111
Rauta,048-MGD4PTN,26.059444444444445,87.73722222222223
Sikti,051-MGD4PTN,26.410277777777775,87.44972222222222
Bagaha,038-MGD4PTN,27.12913888888889,84.04833333333333
Tumri,033-CDJAPR,24.33111111111111,75.13777777777779
Belsand,056-MGD4PTN,26.414166666666667,85.4
DIPURU,044-HDCHENNAI,14.618611111111111,79.56083333333333
Kakarghatti,053-MGD4PTN,26.18861111111111,85.95083333333334
Bairgania,057-MGD4PTN,26.673055555555557,85.24944444444445
Chhitaunighat,037-MGD4PTN,27.178333333333335,83.96416666666667
Nagari,CW1WAR000054,20.425555555555558,78.87444444444444
Sarangpur,020-CDJAPR,23.580555555555556,76.46833333333333
Dalsingh Sarai,046-MGD4PTN,25.715555555555554,85.6538888888889
Sugauli,041-MGD4PTN,26.783333333333335,84.74388888888889
Bachhwara,043-MGD4PTN,25.57472222222222,85.88666666666667
Amour,049-MGD4PTN,25.941388888888888,87.72055555555556
BANGAON,026-LGD3BEH,23.04638888888889,88.83111111111111
Baronda,015-MDBURLA,20.91,81.88805555555557
Pathardihi,017-MDBURLA,21.34111111111111,81.59388888888888
BEDEPARA,001-lgd3beh,24.139166666666664,88.69694444444445
KUZHITHURAI,022-SWRDKOCHI,8.302222222222223,77.18861111111111
Mungoli (Township),CW1WAR000062,19.864444444444445,79.125
Khatoli,016-CDJAPR,25.68111111111111,76.48555555555555
Swaroopganj,026MAHGAND,24.691388888888888,72.93194444444445
Dhareri,001-CDJPR,23.14472222222222,75.50861111111111
 Purna at Yerli,01 02 17 005,20.93777777777778,76.4738888888889
DEDTALAI,014-TDSURAT,21.513055555555557,76.75722222222223
BANPUR,024-LGD3BEH,23.453611111111112,88.75194444444445
CHICHURA,022-LGD3BEH,22.88806111111111,88.40416666666667
BAJITPUR,025-LGD3BEH,23.208055555555553,88.73194444444445
Bolani,065-ERDBWN,22.10527777777778,84.85055555555554
Bonaigarh,050-ERDBWN,21.8475,84.87583333333333
Purunagarh,053-ERDBWN,21.52638888888889,84.7125
Gohira,051-ERDBWN,21.45777777777778,84.69166666666668
Phulgaon,025-ukdpune,18.66638888888889,74.00166666666667
AYALAMBEDU,056-hd chennai,13.12861111111111,79.4786111111111
KALMA,060-MDBURLA,21.69472222222222,83.27777777777777
Janjhavati Rd.Bridge,046-ERDBWN,18.861111111111114,83.45972222222223
Fatehpur,032-MGD5PTN,25.513333333333332,85.19611111111111
Banka,050-mgd5ptn,24.887219444444444,86.93221944444446
Kathautiya,071-mgd5ptn,24.122222222222224,84.06333333333333
Manpur,064-mgd5ptn,25.233055555555556,86.12277777777777
Udwantnagar,066-mgd5ptn,25.526944444444442,84.58638888888889
Parmanpur,002-MDBURLA,21.772778,84.081667
Ahiro,070-mgd5ptn,24.934225,87.15047222222223
Nawada,061-mgd5ptn,24.882586111111113,85.54972222222221
Banjari,065-mgd5ptn,25.66545,83.997725
Jehanabad,060-mgd5ptn,25.20947222222222,84.98372222222223
Sitalpur,037MGD5PTN,25.746111111111112,85.02638888888889
Yadunathpur,072-mgd5ptn,24.522777777777776,83.58777777777777
Narasingarayainpet,047-hdchennai,13.183333333333334,79.20805555555556
Mahad,017-ukdpune,18.092222222222222,73.46027777777778
kogaon,007-NDBHP,22.101666666666667,75.68388888888889
Chanpatia,001-MGD4PTN,26.960833333333333,84.53527777777778
JAMALPUR,014-DDASL	,23.083055555555557,87.93333333333334
GHISH,019-LBDJPG,26.872222222222224,88.61166666666666
Temni,CW1WEI000046,21.55888888888889,80.465
Jagibhakatgaon,051,26.176944444444445,92.2175
Sarra,CW1WEI000057,22.008055555555554,78.93083333333334
Dhanora (Kathani),CW1WEI000064,20.278055555555554,80.28722222222223
Mondgaon (Yelakeli),CW1WAR000071,20.811111111111114,78.59472222222222
Sultanganj,034-MGD5PTN,25.253055555555555,86.73444444444445
Nagothane,022-ukdpune,18.51888888888889,73.1563888888889
Nandadih1,004-DDASL	,24.0325,86.43305555555555
Shella,01-10-15-001,25.179722222222225,91.63527777777779
Rudraprayag (conf),005-HGDDDN,30.28638888888889,78.9775
Rudraprayag (A),004-HGDDDN,30.28805555555556,78.98416666666667
Rudraprayag (M),006-HGDDDN,30.288333333333334,78.97916666666667
Badlaghat,045-MGD4PTN,25.57111111111111,86.5911111111111
Bathnaha,050-MGD4PTN,26.3725,87.23694444444445
Patala,CW1WAR000056,20.126944444444444,79.00138888888888
Sakhra (Wadsa),CW1WEI000055,20.62138888888889,79.93722222222223
Kokiwada,CW1WEI000061,21.897777777777776,79.23444444444445
Thakraha,040-MGD4PTN,26.791944444444447,84.27027777777778
Thal,033-MGD1LKN,29.8275,80.14111111111112
Dulha Dhakia,062-mgd2lkn,28.00888888888889,79.79638888888888
TARINIPUR,027-LGD3BEH,22.891111111111112,88.87888888888888
Chousa,042-MGD3VNS,25.50027777777778,83.87888888888888
NEGAI,046-mgd3vns,24.46222222222222,83.23222222222222
NARAYANPUR ,028-MGD3VNS,25.20777777777778,83.01138888888889
Saidpur,35-MGD3VNS,25.53388888888889,83.22111111111111
Kasmabad,044-MGD3VNS,25.835555555555555,83.75416666666666
Chunar,098-mgd-3vns,25.1325,82.88222222222221
MARVAS,037-MGD3VNS,24.168055555555558,81.8963888888889
RAJIM,024-MDBURLA,20.974999999999998,81.88111111111111
Gomlai,020-ERDBWN,21.834444444444443,84.91277777777778
ADDOOR,025CDBNG,12.928888888888888,74.9538888888889
RAMAMANGALAM,014-SWRDKOCHI,9.943611111111112,76.47833333333334
Devprayag (A),HGDDDN-053,30.144166666666667,78.60111111111111
KUTHIBARI,017-LGD3BEH,23.22583333333333,88.70861111111111
MADLA,013-LYDAGRA,24.732499999999998,80.00694444444444
Deosugur,004-LKDHYD,16.38222222222222,77.35722222222222
LABHA,005-LGD3BEH,25.430555555555557,87.76833333333333
Barkisuriya,003-DDASL	,24.221944444444443,85.90111111111112
Ramnagar Bagha,039-MGD1LKN,28.158055555555553,81.09333333333333
BAROT,006-SHDSIM,32.04666666666667,76.83305555555555
Ganeshganj,CW1WEI000042,22.505,79.57888888888888
Sakoli Bridge,CW1WEI000047,21.06416666666667,79.98694444444445
Sangla,IBO-2-063-0549,31.4225,78.265
Shalkhar,IBO-1-058-0544,31.999166666666667,78.57333333333332
Devlia Khurd,036-CDJAPR,26.016111111111112,75.24972222222222
Byrnihat,01-10-14-001,26.040277777777778,91.86583333333333
Nellore Telemetry,005-hydchennai,14.465677777777778,79.9844638888889
Verupakshapuram,045-HDCHENNAI,13.794444444444444,79.70222222222222
Suraithota,034-HGDDDN,30.531388888888888,79.74083333333333
Puduvayal,049 -HD CHENNAI,13.336666666666668,80.14611111111111
Nongstoin-I (Mawthungkper),01-10-19-001,25.477052777777775,91.31514444444444
Ranikor,01-10-16-001,25.219166666666666,91.24527777777777
Risiang,01-10-25-001,25.50773611111111,91.19601944444445
NARIYAMPATTU,057-hd CHENNAI,12.847777777777779,78.72111111111111
Sonapur,01-10-18-001,25.110555555555557,92.36277777777777
THIRUVALAM,045-hd chennai,12.98472222222222,79.26722222222222
Tuirial,011-mdsil,23.71833333333333,92.79972222222221
HAORA,005-mdsil,23.82611111111111,91.27277777777778
KAMALPUR,002-MDSIL,24.193055555555556,91.83583333333333
GHOUSHAL,019-chejmu,32.533055555555556,76.93305555555555
Ranipool,DWRIS-13,27.278888888888886,88.59444444444443
 Rangma Range,DWRIS-07,27.613611111111112,88.62888888888888
Upper Rimbi,dwris-01,27.330833333333334,88.15194444444445
BAZARSAW [SEASONAL],007-LGD3BEH,23.857222222222223,88.16583333333334
Pallamala,043-HDCHENNAI,13.718055555555555,79.7925
Poyyapakkam,040-HDCHENNAI,13.039166666666667,79.875
Nainpur,CW1WEI000069,22.422777777777778,80.09277777777777
Gangapur Dam ( State Govt. ),002-ugdhyd,19.999722222222225,74.01666666666667
GULLING,IBO-1-057-0543,32.0425,78.08194444444445
ISLAMPUR [seasonal],012-LGD3BEH,24.15138888888889,88.46277777777777
Halia,026-LKDHYD,16.790277777777778,79.3386111111111
Anantharam,034-LKDHYD,17.434722222222224,79.41194444444444
Mungapar,CW1WEI000072,22.334444444444443,79.86166666666666
Doyang Hep Reservoir,077-UBDDIB,26.229999999999997,94.26083333333334
Keonjhar,017-ERDBWN,21.62777777777778,85.63138888888888
RAMPUR_1,004-SHDSIM,31.45,77.63333333333334
UDAIPUR,020-chejmu,32.69972222222222,76.64972222222222
K. Agraharam,015-lkdhyd,16.25777777777778,77.84027777777777
PALASIPARA,016-LGD3BEH,23.79416666666667,88.41805555555555
Champua,014-ERDBWN,22.06888888888889,85.67055555555557
Sarekha,CW1WEI000065,22.178611111111113,80.02472222222222
TANDI,021-CHEJMU,32.55027777777777,76.97972222222222
HANSA,IBO-1-056-0542,32.448611111111106,77.86277777777777
Khab,IBO-1-059-0545,31.804444444444446,78.64277777777778
Ghaluwal,IBO-1-060-0546,31.480833333333333,76.22111111111111
MIYAR NALLAH,022-CHEJMU,32.71666666666667,76.66638888888889
Jhilmili,CW1WEI000068,22.044722222222223,79.16388888888889
KALNA (flow),014-LGD3BEH,24.220277777777778,88.37249999999999
Bhishnur,CW1WAR000063,21.109722222222224,78.12944444444443
Lalganj,010MGD5PTN,25.84583333333333,85.15444444444445
Bangpura,024-CDJAPR,24.110277777777778,76.40944444444445
BISWANATHPUR,002-LGD3BEH,24.4575,88.1375
BERHAIT,006-LGD3BEH,24.88861111111111,87.59472222222222
Bakhari,CW3WEI121214,22.32472222222222,79.46805555555555
Anthara,027-cdjapr,25.394166666666667,75.77777777777777
Narsingpur,010-ukdpune,17.97138888888889,75.13916666666667
KALNA (Ebb),013-LGD3BEH,23.220277777777778,88.37249999999999
NANDRE,042-UKD PUNE,16.949166666666667,74.52972222222222
BERHAMPORE,008-LGD3BEH,24.089166666666664,88.2425
ENGLISHBAZAR,010-LGD3BEH,24.995,88.14861111111112
Lodhikheda,CW1WAR000070,21.579444444444444,78.86583333333333
Yuksum,DWRIS-10,27.36777777777778,88.20722222222223
Mohgaon,003-NDBHP,22.765833333333333,80.62333333333332
Maneri,035-HGDDDN,30.773055555555555,78.60111111111111
Chamiyala,020-HGDDDN,30.473055555555554,78.63055555555555
Talikot,020-ukdpune,16.483611111111113,76.28444444444445
CHIKKARASINAKERE,0046-CDBNG,12.510277777777778,77.03666666666666
T.K.HALLI,020-CDBNG,12.411944444444444,77.19277777777778
SAKLESHPUR,011-CDBNG,12.943333333333333,75.79388888888889
MUKKODLU,0044-CDBNG,12.490555555555554,75.77222222222223
Collem,027-ukdpune,15.338611111111112,74.24833333333333
Sandi,029-mgd2lkn,27.272222222222222,79.95083333333334
JANNAPURA,040CDBNG,13.05638888888889,75.96138888888889
KELLODU,008-CDBNG,13.754166666666666,76.31972222222223
SEMARKHEDI,069-LYDAGRA,24.399722222222223,78.17805555555556
Borkhandi,030-CDJAPR,25.185,75.935
KOKKEDODDY,0045-CDBNG,12.296111111111111,77.44083333333333
Honnali,002-CDBNG,14.237222222222222,75.66250000000001
FATEHGANJ (E),MGD2-035,28.06833333333333,79.63527777777779
Basantpur_CWC,055-mgd2lkn,29.103055555555557,78.09861111111111
MAHISHI,010-CDBNG,13.697222222222223,75.33555555555554
Paliakalan,006-MGD1LKN,28.384999999999998,80.55333333333333
HARIHARAPURA,011-cdbmg,13.5225,75.30361111111111
HADIGE,056-CDBNG-T,13.012222222222222,75.73361111111112
TIRTHAHALLI ,059-CDBNG-T,13.691944444444445,75.24833333333333
KOPPA,060-CDBNG-T,13.534722222222221,75.04916666666666
MANANTHAVADY,050-CDBNG-T,11.795833333333333,76.00361111111111
MUDIGERE,055-CDBNG-T,13.137777777777778,75.64194444444445
SRINGERI,058-CDBNG-T,13.429444444444444,75.25861111111111
HATTIHOLE,054-CDBNG-T,12.481666666666667,75.79444444444444
MADIKERI ,057-CDBNG-T,12.42611111111111,75.72944444444444
MADAPURA,052-CDBNG-T,12.506944444444445,75.67416666666666
BALEHONNUR,061-CDBNG-T,13.351388888888888,75.4713888888889
VYTHIRI,051-CDBNG-T,11.549722222222222,76.03972222222222
SOMWARPET,053-CDBNG-T,12.580555555555556,75.8425
NARASIMHARAJAPURA,062-CDBNG-T,13.607777777777777,75.50861111111111
Kalmane,035-CDBNG,13.652222222222223,75.17916666666667
Kateela,CDJ34,25.515,77.18111111111112
LAKKAVALLI,049-CDBNG,13.706388888888888,75.64472222222223
Fica Barrage,045-mgd2lkn,29.30388888888889,78.79222222222222
THIMMANAHALLI,021-CDBNG,12.985277777777776,76.03777777777778
Sultanpur,009-MGD3VNS,26.275277777777777,82.0667
Cholachagudda,009-ukdpune,15.879166666666666,75.72111111111111
Gokak Falls,008-ukdpune,16.18138888888889,74.80111111111111
KUPPELUR,009-CDBNG,14.5,75.63388888888889
Belne Bridge,015-ukdpune,16.22083333333333,73.59472222222222
Ganjem,026--ukdpune,15.470833333333333,74.09916666666666
Anjanari,013-ukdpune,16.934722222222224,73.51416666666667
Jhalawar,CDJ35,24.590833333333332,76.1875
K.M. VADI,016-CDBNG,12.347222222222223,76.29222222222222
Todarpur,028-MGD2lkn,27.586388888888887,80.00222222222222
BELUR,039 CDBNG,13.169722222222221,75.87194444444444
Thandalaiputhur,049-SRDCBE,10.99111111111111,78.51333333333334
KUDIGE,012-cdbng,12.5025,75.96083333333334
THORESHETTAHALLI,0042-cdbng,12.668333333333333,77.04055555555556
AKKIHEBBAL,017-CDBNG,12.598611111111111,76.40055555555556
CHUNCHUNAKATTE,015-CDBNG,12.511111111111111,76.30305555555556
Jamraval,010214003,21.919722222222223,69.48527777777778
THIRUVARAMBU,040-SWRDKOCHI,8.364166666666666,77.25888888888889
Patan,006-NDBHP,23.311666666666667,79.66277777777778
KONDAZHY,029-SWRDKOCHI,10.723333333333333,76.40194444444445
Bilhaur,042-mgd2lkn,26.85527777777778,80.05222222222221
Badrinath,001-HGDDDN,30.746111111111112,79.49277777777777
BILIGUNDULU,024-CDBNG,12.182222222222222,77.7238888888889
KOTTATHARA,40- SRDCBE,11.123333333333333,76.67944444444444
M.H. HALLI,013-CDBNG,12.82,76.14111111111112
T. NARASIPUR,018-CDBNG,12.230277777777777,76.89444444444445
HOMMARAGALLI,0043-CDBNG,12.114166666666666,76.46305555555556
HOLEHONNUR,006-CDBNG,13.97638888888889,75.68527777777778
CHIKKAMALUR,0048-CDBNG,12.595555555555556,77.05666666666666
Atrauli,040-mgd2lkn,27.980833333333333,78.19916666666667
T. BEKKUPE,019-CDBNG,12.507222222222222,77.42805555555556
DUSKHEDE,056-TDSURAT,20.726666666666667,75.38388888888889
Aheri (Gudem Bridge) ,CW1PRA000084,19.416666666666668,79.97222222222223
Shimoga,001-CDBNG,13.926944444444445,75.585
VIJAY RAGHAVGARH,056-MGD-3VNS,23.969166666666666,80.6125
Bhojpur,052-mgd2lkn,28.97138888888889,78.8236111111111
Pilibhit,059-mgd2lkn,28.618055555555557,79.79166666666667
Dhaneta,053-mgd2lkn,28.496944444444445,79.27083333333333
Sehramau (South),036-mgd2lkn,27.74361111111111,79.92777777777778
Shergarh,033-mgd2lkn,28.68138888888889,79.33777777777777
LALGANJ,032-mgd3vns,24.924722222222222,82.25777777777778
Kairi,033-MGD3VNS,24.96361111111111,81.82472222222222
SOHAR,045-MGD3VNS,24.31722222222222,82.27222222222223
Kohdarghat,030-MGD3VNS,25.151666666666664,81.98222222222222
Marchula,048-mgd2lkn,29.60611111111111,79.09277777777777
Haralahalli,003-CDBNG,14.830555555555556,75.67444444444445
Gunderdehi,053-MDBURLA,20.953888888888887,81.2936111111111
Sirimoda,041-lgdhyd,18.62027777777778,82.87166666666666
TESKA,013-TDSURAT,21.815,77.77361111111111
Marol,004-CDBNG,14.93888888888889,75.61805555555554
Arampur,059-MDBURLA,20.809166666666666,84.61333333333333
Bango dam,004-MDBURLA,22.6,82.58
Jamadarpali,029-MDBURLA,21.55388888888889,83.97222222222223
Umkiang,01-10-21-001,25.060555555555556,92.38388888888889
MANAKKAD,031-SWRDKOCHI,9.908888888888889,76.69611111111111
PALLIPPADY,034-SWRDKOCHI,10.039444444444444,76.61638888888888
PUDUR,009-SWRDKOCHI,10.777500000000002,76.51222222222222
MANIKAL,032-SWRDKOCHI,9.531111111111112,76.91222222222223
Kataghora,056-MDBURLA,22.491666666666667,82.53861111111111
Navalgund,030-ukdpune,15.573055555555555,75.37305555555555
Kishan Nagar ,046-MDBURLA,20.428611111111113,86.09055555555555
PULLAKKAYAR,035-SWRDKOCHI,9.574444444444444,76.88611111111112
DURVESH,035-TDSURAT,19.7125,72.93055555555556
Naula,049-mgd2lkn,29.741666666666667,79.24694444444445
PINGALWADA,033-TDSURAT,22.110833333333336,73.0786111111111
Airani,036-CDBNG,14.605833333333333,75.80527777777777
HOOVINAHOLE,007-CDBNG,13.9825,76.74916666666667
Ambaji,031-MAHGAND,24.323888888888888,72.8611111111111
PALAKADAVU,033-SWRDKOCHI,10.424999999999999,76.23777777777778
RAJPIPLA,002-TDSURAT,21.87777777777778,73.46611111111112
SAVKHEDA,018-TDSURAT,21.149444444444445,75.23194444444445
NAPOKLU,0035-CDBNG,12.314444444444446,75.69861111111112
BETTADAMANE,038cdbng,13.069166666666666,75.68
Jyoti Jagir,037-mgd2lkn,28.38861111111111,79.65
Garjia,050-mgd2lkn,29.486944444444447,79.14222222222223
MOTINAROLI,005-TDSURAT,21.23777777777778,72.96333333333334
Boudh,057-MDBURLA,20.865555555555556,84.31333333333333
Maniyari ,054-MDBURLA,21.91611111111111,82.0025
BHUSAWAL,017-TDSURAT,21.06833333333333,75.78027777777778
CHANWADA,006-TDSURAT,22.05,73.46527777777779
LAKHPURI,010-TDSURAT,20.845555555555553,77.36055555555555
BODELI,001-TDSURAT,22.265,73.72722222222222
MALGAON,062 MDBURLA,20.65694444444444,82.03888888888889
Balakati ,050-MDBURLA,20.203611111111112,85.85527777777777
Balanga ,051-MDBURLA,20.039166666666667,85.87916666666666
Daya Rd.Bridge ,052-mdburla,20.203055555555554,85.86166666666666
Tarpur ,047-MDBURLA,20.3575,86.22944444444444
DAHIGAON,008-TDSURAT,20.83361111111111,75.4238888888889
KOTTAPURAM,030-SWRDKOCHI,10.677777777777777,76.20055555555555
LOHARA,036-TDSURAT,20.81638888888889,76.76388888888889
Sitarganj,061-mgd2lkn,29.041666666666668,79.76638888888888
KURANKHEDA,038-TDSURAT,20.703055555555554,77.24277777777777
MAHUWA,034-TDSURAT,21.014444444444443,73.14027777777778
GADAT,024-TDSURAT,20.85611111111111,72.98472222222222
